[{"id": "700400", "name": "Flensborg Bibliotek", "area": "Dansk Centralbibliotek for Sydslesvig e.V.", "street": "Norderstrasse 59", "postcode": "D-24939", "city": "Flensburg", "type": "Folkebibliotek", "geo": {"lat": 54.79212, "lng": 9.43103}},
{"id": "700401", "name": "Husum Bibliotek", "area": "Dansk Centralbibliotek for Sydslesvig e.V.", "street": "Neustadt 81", "postcode": "D-25813", "city": "Husum", "type": "Folkebibliotek", "geo": {"lat": 54.4801716, "lng": 9.046711499999999}},
{"id": "700402", "name": "Slesvig Bibliotek", "area": "Dansk Centralbibliotek for Sydslesvig e.V.", "street": "Bismarckstraße 18A", "postcode": "D-24837", "city": "Schleswig", "type": "Folkebibliotek", "geo": {"lat": 54.5188982, "lng": 9.5640843}},
{"id": "700404", "name": "Fællesbiblioteket Egernførde", "area": "Dansk Centralbibliotek for Sydslesvig e.V.", "street": "Hans-Chr-Andersen Weg 2", "postcode": "D-24340", "city": "Eckernförde", "type": "Folkebibliotek", "geo": {"lat": 54.47328, "lng": 9.82871}},
{"id": "700405", "name": "Bogbusserne", "area": "Dansk Centralbibliotek for Sydslesvig e.V.", "street": "Norderstr. 59", "postcode": "D-24939", "city": "Flensburg", "type": "Folkebibliotek", "geo": {"lat": 54.79212, "lng": 9.43103}},
{"id": "710100", "name": "Hovedbiblioteket, Krystalgade", "area": "Københavns Biblioteker", "street": "Krystalgade 15", "postcode": "1172", "city": "København K", "type": "Folkebibliotek", "geo": {"lat": 55.680887, "lng": 12.573619}},
{"id": "710104", "name": "Blågårdens Bibliotek", "area": "Københavns Biblioteker", "street": "Blågårds Plads 5", "postcode": "2200", "city": "København N", "type": "Folkebibliotek", "geo": {"lat": 55.6860904, "lng": 12.5567168}},
{"id": "710105", "name": "Brønshøj Bibliotek", "area": "Københavns Biblioteker", "street": "Frederikssundsvej 175", "postcode": "2700", "city": "Brønshøj", "type": "Folkebibliotek", "geo": {"lat": 55.7042921, "lng": 12.4993836}},
{"id": "710106", "name": "Christianshavns Bibliotek", "area": "Københavns Biblioteker", "street": "Dronningensgade 53", "postcode": "1420", "city": "København K", "type": "Folkebibliotek", "geo": {"lat": 55.6723406, "lng": 12.5921292}},
{"id": "710107", "name": "Husum Bibliotek", "area": "Københavns Biblioteker", "street": "Frederikssundsvej 290", "postcode": "2700", "city": "Brønshøj", "type": "Folkebibliotek", "geo": {"lat": 55.7113268, "lng": 12.4747123}},
{"id": "710108", "name": "Islands Brygge Bibliotek", "area": "Københavns Biblioteker", "street": "Njalsgade 15", "postcode": "2300", "city": "København S", "type": "Folkebibliotek", "geo": {"lat": 55.66654279999999, "lng": 12.5791908}},
{"id": "710109", "name": "Øbro Jagtvej Bibliotek", "area": "Københavns Biblioteker", "street": "Jagtvej 227", "postcode": "2100", "city": "København Ø", "type": "Folkebibliotek", "geo": {"lat": 55.709173, "lng": 12.576458}},
{"id": "710110", "name": "Biblioteket Rentemestervej", "area": "Københavns Biblioteker", "street": "Rentemestervej 76", "postcode": "2400", "city": "København NV", "type": "Folkebibliotek", "geo": {"lat": 55.70842099999999, "lng": 12.52288}},
{"id": "710111", "name": "Nørrebro Bibliotek", "area": "Københavns Biblioteker", "street": "Bragesgade 8", "postcode": "2200", "city": "København N", "type": "Folkebibliotek", "geo": {"lat": 55.6990425, "lng": 12.5432118}},
{"id": "710112", "name": "Solvang Bibliotek", "area": "Københavns Biblioteker", "street": "Remisevej 14", "postcode": "2300", "city": "København S", "type": "Folkebibliotek", "geo": {"lat": 55.6487443, "lng": 12.5955017}},
{"id": "710113", "name": "Sundby Bibliotek", "area": "Københavns Biblioteker", "street": "Kvarterhuset Jemtelandsgade 3", "postcode": "2300", "city": "København S", "type": "Folkebibliotek", "geo": {"lat": 55.6651998, "lng": 12.6038686}},
{"id": "710114", "name": "Bibliotekshuset", "area": "Københavns Biblioteker", "street": "Rodosvej 4", "postcode": "2300", "city": "København S", "type": "Folkebibliotek", "geo": {"lat": 55.65035899999999, "lng": 12.6132581}},
{"id": "710115", "name": "Sydhavnens Bibliotek", "area": "Københavns Biblioteker", "street": "Wagnersvej 19", "postcode": "2450", "city": "København SV", "type": "Folkebibliotek", "geo": {"lat": 55.6468105, "lng": 12.529623}},
{"id": "710116", "name": "Tingbjerg Bibliotek", "area": "Københavns Biblioteker", "street": "Ruten 14", "postcode": "2700", "city": "Brønshøj", "type": "Folkebibliotek", "geo": {"lat": 55.718864, "lng": 12.481163}},
{"id": "710117", "name": "Valby Bibliotek", "area": "Københavns Biblioteker", "street": "Annexstræde 2", "postcode": "2500", "city": "Valby", "type": "Folkebibliotek", "geo": {"lat": 55.66535400000001, "lng": 12.513072}},
{"id": "710118", "name": "Kulturstationen Vanløse. Biblioteket", "area": "Københavns Biblioteker", "street": "Jernbane Alle 38", "postcode": "2720", "city": "Vanløse", "type": "Folkebibliotek", "geo": {"lat": 55.686532, "lng": 12.491274}},
{"id": "710119", "name": "Vesterbro Bibliotek", "area": "Københavns Biblioteker", "street": "Lyrskovgade 4", "postcode": "1758", "city": "København V", "type": "Folkebibliotek", "geo": {"lat": 55.66783599999999, "lng": 12.543681}},
{"id": "710120", "name": "Vigerslev Bibliotek", "area": "Københavns Biblioteker", "street": "Kirsebærhaven 23", "postcode": "2500", "city": "Valby", "type": "Folkebibliotek", "geo": {"lat": 55.649234, "lng": 12.5032789}},
{"id": "710121", "name": "Østerbro Bibliotek", "area": "Københavns Biblioteker", "street": "Dag Hammarskjölds Alle 19", "postcode": "2100", "city": "København Ø", "type": "Folkebibliotek", "geo": {"lat": 55.694579, "lng": 12.581699}},
{"id": "710122", "name": "Ørestad Bibliotek", "area": "Københavns Biblioteker", "street": "Arne Jacobsens Allé 19", "postcode": "2300", "city": "København S", "type": "Folkebibliotek", "geo": {"lat": 55.63134660000001, "lng": 12.5809647}},
{"id": "714700", "name": "Biblioteket Frederiksberg, Hovedbiblioteket", "area": "Biblioteket Frederiksberg", "street": "Falkoner Plads 3", "postcode": "2000", "city": "Frederiksberg", "type": "Folkebibliotek", "geo": {"lat": 55.68100339999999, "lng": 12.5303327}},
{"id": "714702", "name": "Biblioteket Danasvej", "area": "Biblioteket Frederiksberg", "street": "Danasvej 30B", "postcode": "1910", "city": "Frederiksberg C", "type": "Folkebibliotek", "geo": {"lat": 55.67954599999999, "lng": 12.550756}},
{"id": "714703", "name": "Biblioteket Godthåbsvej", "area": "Biblioteket Frederiksberg", "street": "Godthåbsvej 85A", "postcode": "2000", "city": "Frederiksberg", "type": "Folkebibliotek", "geo": {"lat": 55.688685, "lng": 12.523189}},
{"id": "714704", "name": "Biblioteket Domus Vista", "area": "Biblioteket Frederiksberg", "street": "Nordens Plads 4", "postcode": "2000", "city": "Frederiksberg", "type": "Folkebibliotek", "geo": {"lat": 55.670992, "lng": 12.500803}},
{"id": "715100", "name": "Ballerup Bibliotek", "area": "Ballerup Bibliotekerne", "street": "Hovedbiblioteket Banegårdspladsen 1", "postcode": "2750", "city": "Ballerup", "type": "Folkebibliotek", "geo": {"lat": 55.7297418, "lng": 12.3595981}},
{"id": "715101", "name": "Skovlunde Kulturhus", "area": "Ballerup Bibliotekerne", "street": "Bybjergvej 8-10", "postcode": "2740", "city": "Skovlunde", "type": "Folkebibliotek", "geo": {"lat": 55.718655, "lng": 12.400783}},
{"id": "715102", "name": "Kulturhus Måløv", "area": "Ballerup Bibliotekerne", "street": "Måløv Hovedgade 60", "postcode": "2760", "city": "Måløv", "type": "Folkebibliotek", "geo": {"lat": 55.749694, "lng": 12.319237}},
{"id": "715300", "name": "Biblioteket i Kilden", "area": "Brøndby-Bibliotekerne", "street": "Nygårds Plads 31", "postcode": "2605", "city": "Brøndby", "type": "Folkebibliotek", "geo": {"lat": 55.667581, "lng": 12.439601}},
{"id": "715301", "name": "Brøndbyvester Bibliotek", "area": "Brøndby-Bibliotekerne", "street": "Glentemosen 13", "postcode": "2605", "city": "Brøndby", "type": "Folkebibliotek", "geo": {"lat": 55.65282, "lng": 12.408298}},
{"id": "715302", "name": "Biblioteket i Brønden", "area": "Brøndby-Bibliotekerne", "street": "Brønden Brøndby Strand Centrum 60", "postcode": "2660", "city": "Brøndby Strand", "type": "Folkebibliotek", "geo": {"lat": 55.6232944, "lng": 12.4233432}},
{"id": "715500", "name": "Biblioteket i Dragør", "area": "Dragør Bibliotekerne", "street": "Vestgrønningen 18-20", "postcode": "2791", "city": "Dragør", "type": "Folkebibliotek", "geo": {"lat": 55.5932177, "lng": 12.6707656}},
{"id": "715501", "name": "Biblioteket i Hollænderhallen", "area": "Dragør Bibliotekerne", "street": "Halvejen 3", "postcode": "2791", "city": "Dragør", "type": "Folkebibliotek", "geo": {"lat": 55.594183, "lng": 12.63912}},
{"id": "715700", "name": "Gentofte Bibliotekerne, Hovedbiblioteket", "area": "Gentofte Bibliotekerne", "street": "Ahlmanns Alle 6", "postcode": "2900", "city": "Hellerup", "type": "Folkebibliotek", "geo": {"lat": 55.73745899999999, "lng": 12.573438}},
{"id": "715701", "name": "Ordrup Bibliotek", "area": "Gentofte Bibliotekerne", "street": "Ejgårdsvej 11", "postcode": "2920", "city": "Charlottenlund", "type": "Folkebibliotek", "geo": {"lat": 55.7580265, "lng": 12.5714021}},
{"id": "715702", "name": "Vangede Bibliotek", "area": "Gentofte Bibliotekerne", "street": "Vangede Bygade 45", "postcode": "2820", "city": "Gentofte", "type": "Folkebibliotek", "geo": {"lat": 55.751032, "lng": 12.5184979}},
{"id": "715703", "name": "Gentoftegade Bibliotek", "area": "Gentofte Bibliotekerne", "street": "Gentoftegade 45", "postcode": "2820", "city": "Gentofte", "type": "Folkebibliotek", "geo": {"lat": 55.746455, "lng": 12.541343}},
{"id": "715704", "name": "Dyssegård Bibliotek", "area": "Gentofte Bibliotekerne", "street": "Dyssegårdsvej 24", "postcode": "2900", "city": "Dyssegård", "type": "Folkebibliotek", "geo": {"lat": 55.73225100000001, "lng": 12.538733}},
{"id": "715705", "name": "Jægersborg Bibliotek", "area": "Gentofte Bibliotekerne", "street": "Smakkegårdsvej 112", "postcode": "2820", "city": "Gentofte", "type": "Folkebibliotek", "geo": {"lat": 55.76156779999999, "lng": 12.5269871}},
{"id": "715900", "name": "Gladsaxe Bibliotekerne, Hovedbiblioteket", "area": "Gladsaxe Bibliotekerne", "street": "Søborg Hovedgade 220", "postcode": "2860", "city": "Søborg", "type": "Folkebibliotek", "geo": {"lat": 55.7423172, "lng": 12.4949918}},
{"id": "715902", "name": "Bibliografen  Bagsværd", "area": "Gladsaxe Bibliotekerne", "street": "Bagsværd Hovedgade 116", "postcode": "2880", "city": "Bagsværd", "type": "Folkebibliotek", "geo": {"lat": 55.7606338, "lng": 12.4557026}},
{"id": "715903", "name": "Høje Gladsaxe Bibliotek", "area": "Gladsaxe Bibliotekerne", "street": "Høje Gladsaxe Torv 2A", "postcode": "2860", "city": "Søborg", "type": "Folkebibliotek", "geo": {"lat": 55.730211, "lng": 12.497613}},
{"id": "715904", "name": "Mørkhøj Bibliotek", "area": "Gladsaxe Bibliotekerne", "street": "Ilbjerg Alle 38A", "postcode": "2860", "city": "Søborg", "type": "Folkebibliotek", "geo": {"lat": 55.723797, "lng": 12.469845}},
{"id": "715905", "name": "Værebro Bibliotek", "area": "Gladsaxe Bibliotekerne", "street": "Værebrovej 72", "postcode": "2880", "city": "Bagsværd", "type": "Folkebibliotek", "geo": {"lat": 55.758464, "lng": 12.439297}},
{"id": "716100", "name": "Glostrup Bibliotek", "area": "Glostrup Bibliotek", "street": "Kildevældets Alle 5", "postcode": "2600", "city": "Glostrup", "type": "Folkebibliotek", "geo": {"lat": 55.66366, "lng": 12.3938279}},
{"id": "716300", "name": "Herlev-Bibliotek. Hovedbiblioteket", "area": "Herlev Bibliotek", "street": "Herlev Bygade 70", "postcode": "2730", "city": "Herlev", "type": "Folkebibliotek", "geo": {"lat": 55.725455, "lng": 12.435548}},
{"id": "716500", "name": "Albertslund Bibliotek", "area": "Albertslund Bibliotek", "street": "Bibliotekstorvet 2", "postcode": "2620", "city": "Albertslund", "type": "Folkebibliotek", "geo": {"lat": 55.65701559999999, "lng": 12.3562517}},
{"id": "716503", "name": "Bibliotek og Medborgercenter Hedemarken", "area": "Albertslund Bibliotek", "street": "Hedemarksvej 14", "postcode": "2620", "city": "Albertslund", "type": "Folkebibliotek", "geo": {"lat": 55.657011, "lng": 12.3399174}},
{"id": "716700", "name": "Hovedbiblioteket", "area": "HvidovreBibliotekerne", "street": "Hvidovrevej 280", "postcode": "2650", "city": "Hvidovre", "type": "Folkebibliotek", "geo": {"lat": 55.641952, "lng": 12.477669}},
{"id": "716701", "name": "Avedøre Bibliotek", "area": "HvidovreBibliotekerne", "street": "Bødkerporten 6A", "postcode": "2650", "city": "Hvidovre", "type": "Folkebibliotek", "geo": {"lat": 55.62752, "lng": 12.4500379}},
{"id": "716900", "name": "Tåstrup Bibliotek", "area": "Høje-Taastrup Kommunes Biblioteker", "street": "Taastrup Hovedgade 86", "postcode": "2630", "city": "Taastrup", "type": "Folkebibliotek", "geo": {"lat": 55.648429, "lng": 12.299623}},
{"id": "716903", "name": "Hedehusene Bibliotek", "area": "Høje-Taastrup Kommunes Biblioteker", "street": "Hovedgaden 516, 1.sal", "postcode": "2640", "city": "Hedehusene", "type": "Folkebibliotek", "geo": {"lat": 55.6494695, "lng": 12.1973509}},
{"id": "716904", "name": "Gadehavebiblioteket", "area": "Høje-Taastrup Kommunes Biblioteker", "street": "Gadehaveskolen, Gadehavegårdsvej 1,", "postcode": "2630", "city": "Tåstrup", "type": "Folkebibliotek", "geo": {"lat": 55.6520198, "lng": 12.2689169}},
{"id": "717300", "name": "Stadsbiblioteket i Lyngby", "area": "Lyngby-Taarbæk Bibliotekerne", "street": "Lyngby Hovedgade 28", "postcode": "2800", "city": "Kongens Lyngby", "type": "Folkebibliotek", "geo": {"lat": 55.773331, "lng": 12.498974}},
{"id": "717303", "name": "Taarbæk Bibliotek", "area": "Lyngby-Taarbæk Bibliotekerne", "street": "Taarbæk Strandvej 96", "postcode": "2930", "city": "Klampenborg", "type": "Folkebibliotek", "geo": {"lat": 55.7870693, "lng": 12.5947267}},
{"id": "717305", "name": "Virum Mikrobibliotek", "area": "Lyngby-Taarbæk Bibliotekerne", "street": "Geels Plads 40", "postcode": "2830", "city": "Virum", "type": "Folkebibliotek", "geo": {"lat": 55.793748, "lng": 12.47468}},
{"id": "717500", "name": "Rødovre Kommunebiblioteker", "area": "Rødovre Kommunebiblioteker", "street": "Rødovre Parkvej 140", "postcode": "2610", "city": "Rødovre", "type": "Folkebibliotek", "geo": {"lat": 55.680913, "lng": 12.457274}},
{"id": "717501", "name": "Islev Bibliotek: Trekanten", "area": "Rødovre Kommunebiblioteker", "street": "Rødovrevej 405", "postcode": "2610", "city": "Rødovre", "type": "Folkebibliotek", "geo": {"lat": 55.70162699999999, "lng": 12.454169}},
{"id": "718300", "name": "Ishøj Bibliotek", "area": "Ishøj Bibliotek", "street": "Ishøj Store Torv 1", "postcode": "2635", "city": "Ishøj", "type": "Folkebibliotek", "geo": {"lat": 55.6137373, "lng": 12.3559647}},
{"id": "718301", "name": "Afhentningssted Bibboks", "area": "Ishøj Bibliotek", "street": "Ishøj Store Torv 1", "postcode": "2635", "city": "Ishøj", "type": "Folkebibliotek", "geo": {"lat": 55.6137373, "lng": 12.3559647}},
{"id": "718500", "name": "Hovedbiblioteket", "area": "Tårnby Kommunebiblioteker", "street": "Kamillevej 10", "postcode": "2770", "city": "Kastrup", "type": "Folkebibliotek", "geo": {"lat": 55.632321, "lng": 12.622646}},
{"id": "718502", "name": "Filial Vestamager", "area": "Tårnby Kommunebiblioteker", "street": "Ugandavej 111", "postcode": "2770", "city": "Kastrup", "type": "Folkebibliotek", "geo": {"lat": 55.60325599999999, "lng": 12.586085}},
{"id": "718700", "name": "Vallensbæk Bibliotek", "area": "Vallensbæk Bibliotek", "street": "Vallensbæk Stationstorv 40", "postcode": "2665", "city": "Vallensbæk Strand", "type": "Folkebibliotek", "geo": {"lat": 55.624257, "lng": 12.387463}},
{"id": "718711", "name": "Pilehaveskolen Biblioteksservicepunkt", "area": "Vallensbæk Bibliotek", "street": "Horsbred 197A", "postcode": "2625", "city": "Vallensbæk", "type": "Folkebibliotek", "geo": {"lat": 55.6502132, "lng": 12.3573339}},
{"id": "719000", "name": "Værløse Bibliotek", "area": "Furesø Bibliotek & Borgerservice", "street": "Bymidten 48", "postcode": "3500", "city": "Værløse", "type": "Folkebibliotek", "geo": {"lat": 55.783473, "lng": 12.371396}},
{"id": "719001", "name": "Farum Bibliotek", "area": "Furesø Bibliotek & Borgerservice", "street": "Stavnsholtvej 3", "postcode": "3520", "city": "Farum", "type": "Folkebibliotek", "geo": {"lat": 55.81374, "lng": 12.377128}},
{"id": "719002", "name": "Hareskov Bibliotek", "area": "Furesø Bibliotek & Borgerservice", "street": "Poppel alle 12", "postcode": "3500", "city": "Værløse", "type": "Folkebibliotek", "geo": {"lat": 55.764571, "lng": 12.402532}},
{"id": "720100", "name": "Allerød Bibliotek", "area": "Allerød Biblioteker", "street": "Skovensvej 4", "postcode": "3450", "city": "Allerød", "type": "Folkebibliotek", "geo": {"lat": 55.86772999999999, "lng": 12.354155}},
{"id": "720101", "name": "Lynge Bibliotek", "area": "Allerød Biblioteker", "street": "Hillerødvej 48 C", "postcode": "3540", "city": "Lynge", "type": "Folkebibliotek", "geo": {"lat": 55.8393163, "lng": 12.2775605}},
{"id": "721000", "name": "Fredensborg Bibliotek", "area": "Fredensborg Bibliotekerne", "street": "Jernbanegade 3", "postcode": "3480", "city": "Fredensborg", "type": "Folkebibliotek", "geo": {"lat": 55.9789981, "lng": 12.3989543}},
{"id": "721001", "name": "Nivå Bibliotek", "area": "Fredensborg Bibliotekerne", "street": "Nivå Center 30", "postcode": "2990", "city": "Nivå", "type": "Folkebibliotek", "geo": {"lat": 55.934494, "lng": 12.50394}},
{"id": "721002", "name": "Humlebæk Bibliotek", "area": "Fredensborg Bibliotekerne", "street": "Humlebæk Center 40", "postcode": "3050", "city": "Humlebæk", "type": "Folkebibliotek", "geo": {"lat": 55.96426899999999, "lng": 12.5293647}},
{"id": "721003", "name": "Kokkedal Cafébibliotek", "area": "Fredensborg Bibliotekerne", "street": "Holmegaardsvej 101-102", "postcode": "2980", "city": "Kokkedal", "type": "Folkebibliotek", "geo": {"lat": 55.909695, "lng": 12.489103}},
{"id": "721700", "name": "Biblioteket Kulturværftet", "area": "Helsingør Kommunes Biblioteker", "street": "Allegade 2", "postcode": "3000", "city": "Helsingør", "type": "Folkebibliotek", "geo": {"lat": 56.0377711, "lng": 12.6141173}},
{"id": "721701", "name": "Espergærde Bibliotek", "area": "Helsingør Kommunes Biblioteker", "street": "Kløvermarken 12", "postcode": "3060", "city": "Espergærde", "type": "Folkebibliotek", "geo": {"lat": 55.9951101, "lng": 12.5467761}},
{"id": "721702", "name": "Abildvængets Bibliotek", "area": "Helsingør Kommunes Biblioteker", "street": "Abildgårdsvej 2", "postcode": "3000", "city": "Helsingør", "type": "Folkebibliotek", "geo": {"lat": 56.030787, "lng": 12.592127}},
{"id": "721703", "name": "Hornbæk Bibliotek", "area": "Helsingør Kommunes Biblioteker", "street": "Vestre Stejlebakke 2 A", "postcode": "3100", "city": "Hornbæk", "type": "Folkebibliotek", "geo": {"lat": 56.0905393, "lng": 12.4557533}},
{"id": "721704", "name": "Vapnagård Bibliotek", "area": "Helsingør Kommunes Biblioteker", "street": "Hovmarken 7", "postcode": "3000", "city": "Helsingør", "type": "Folkebibliotek", "geo": {"lat": 56.021911, "lng": 12.581346}},
{"id": "721707", "name": "Bølgens Biblioteksservice", "area": "Helsingør Kommunes Biblioteker", "street": "Jämtlandsvej 1", "postcode": "3140", "city": "Ålsgårde", "type": "Folkebibliotek", "geo": {"lat": 56.076667, "lng": 12.536944}},
{"id": "721900", "name": "Hillerød Bibliotek", "area": "Hillerød Bibliotekerne", "street": "Christiansgade 1 Postboks 252", "postcode": "3400", "city": "Hillerød", "type": "Folkebibliotek", "geo": {"lat": 55.927909, "lng": 12.300806}},
{"id": "721902", "name": "Skævinge", "area": "Hillerød Bibliotekerne", "street": "Hovedgaden 16 C", "postcode": "3320", "city": "Skævinge", "type": "Folkebibliotek", "geo": {"lat": 55.9087417, "lng": 12.14863}},
{"id": "722300", "name": "Hørsholm Bibliotek", "area": "Hørsholm Bibliotek", "street": "Bibliotekstorvet 1", "postcode": "2970", "city": "Hørsholm", "type": "Folkebibliotek", "geo": {"lat": 55.880699, "lng": 12.497312}},
{"id": "723000", "name": "Rudersdal Bibliotekerne. Hovedbiblioteket i Birkerød", "area": "Rudersdal Bibliotekerne", "street": "Stationsvej 38", "postcode": "3460", "city": "Birkerød", "type": "Folkebibliotek", "geo": {"lat": 55.84046499999999, "lng": 12.427654}},
{"id": "723001", "name": "Holte Bibliotek", "area": "Rudersdal Bibliotekerne", "street": "Holte Midtpunkt 23, 2. sal", "postcode": "2840", "city": "Holte", "type": "Folkebibliotek", "geo": {"lat": 55.811471, "lng": 12.471455}},
{"id": "723002", "name": "Nærum Bibliotek", "area": "Rudersdal Bibliotekerne", "street": "Biblioteksalleen 3", "postcode": "2850", "city": "Nærum", "type": "Folkebibliotek", "geo": {"lat": 55.816177, "lng": 12.5397269}},
{"id": "723003", "name": "Vedbæk Bibliotekscenter", "area": "Rudersdal Bibliotekerne", "street": "Henriksholms Allé 2", "postcode": "2950", "city": "Vedbæk", "type": "Folkebibliotek", "geo": {"lat": 55.85216699999999, "lng": 12.5598497}},
{"id": "724000", "name": "Smørum Bibliotek", "area": "Egedal Bibliotekerne", "street": "Flodvej 68 Smørumnedre", "postcode": "2765", "city": "Smørum", "type": "Folkebibliotek", "geo": {"lat": 55.7315365, "lng": 12.3083103}},
{"id": "724001", "name": "Ganløse Bibliotek", "area": "Egedal Bibliotekerne", "street": "Toftekildegård Østergade 12, Ganløse", "postcode": "3660", "city": "Stenløse", "type": "Folkebibliotek", "geo": {"lat": 55.79254899999999, "lng": 12.266358}},
{"id": "724002", "name": "Stenløse Bibliotek", "area": "Egedal Bibliotekerne", "street": "Rådhustorvet 2", "postcode": "3660", "city": "Stenløse", "type": "Folkebibliotek", "geo": {"lat": 55.768226, "lng": 12.1965013}},
{"id": "724003", "name": "Ølstykke Bibliotek", "area": "Egedal Bibliotekerne", "street": "Østervej 1 A Postbox 162", "postcode": "3650", "city": "Ølstykke", "type": "Folkebibliotek", "geo": {"lat": 55.793643, "lng": 12.147581}},
{"id": "725000", "name": "Frederikssund Bibliotek", "area": "Frederikssund Bibliotekerne", "street": "Jernbanegade 24", "postcode": "3600", "city": "Frederikssund", "type": "Folkebibliotek", "geo": {"lat": 55.8379723, "lng": 12.0638525}},
{"id": "725001", "name": "Jægerspris Bibliotek", "area": "Frederikssund Bibliotekerne", "street": "Møllevej 25", "postcode": "3630", "city": "Jægerspris", "type": "Folkebibliotek", "geo": {"lat": 55.852574, "lng": 11.985131}},
{"id": "725002", "name": "Slangerup Bibliotek", "area": "Frederikssund Bibliotekerne", "street": "Kongensgade 18 Postbox 206", "postcode": "3550", "city": "Slangerup", "type": "Folkebibliotek", "geo": {"lat": 55.845994, "lng": 12.169767}},
{"id": "725003", "name": "Skibby Bibliotek", "area": "Frederikssund Bibliotekerne", "street": "Nyvej 7 c", "postcode": "4050", "city": "Skibby", "type": "Folkebibliotek", "geo": {"lat": 55.7489736, "lng": 11.9542105}},
{"id": "725300", "name": "Greve Bibliotek", "area": "Greve Bibliotek", "street": "Hovedbiblioteket Portalen", "postcode": "2670", "city": "Greve", "type": "Folkebibliotek", "geo": {"lat": 55.5983284, "lng": 12.330856}},
{"id": "725302", "name": "Karlslunde Bibliotek", "area": "Greve Bibliotek", "street": "Karlslunde Parkvej 11", "postcode": "2690", "city": "Karlslunde", "type": "Folkebibliotek", "geo": {"lat": 55.56264359999999, "lng": 12.2662491}},
{"id": "725304", "name": "Tune Bibliotek", "area": "Greve Bibliotek", "street": "Tune Center 15", "postcode": "4030", "city": "Tune", "type": "Folkebibliotek", "geo": {"lat": 55.596157, "lng": 12.179258}},
{"id": "725900", "name": "Køge Bibliotek", "area": "KøgeBibliotekerne", "street": "Kirkestræde 18", "postcode": "4600", "city": "Køge", "type": "Folkebibliotek", "geo": {"lat": 55.45783460000001, "lng": 12.1822443}},
{"id": "725902", "name": "Herfølge Bibliotek", "area": "KøgeBibliotekerne", "street": "Billesborgvej 1 B", "postcode": "4681", "city": "Herfølge", "type": "Folkebibliotek", "geo": {"lat": 55.416913, "lng": 12.142357}},
{"id": "725903", "name": "Borup Bibliotek", "area": "KøgeBibliotekerne", "street": "Parkvej 2", "postcode": "4140", "city": "Borup", "type": "Folkebibliotek", "geo": {"lat": 55.5002162, "lng": 11.9804517}},
{"id": "725904", "name": "Bjæverskov Bibliotekspunkt", "area": "KøgeBibliotekerne", "street": "Super Brugsen Bjæverskov Center", "postcode": "4632", "city": "Bjæverskov", "type": "Folkebibliotek", "geo": {"lat": 55.457699, "lng": 12.033552}},
{"id": "725905", "name": "Ejby Bibliotekspunkt", "area": "KøgeBibliotekerne", "street": "Ejby Medborgerhus Gemsevej 19", "postcode": "4623", "city": "Ll. Skensved", "type": "Folkebibliotek"},
{"id": "726000", "name": "Frederiksværk Hovedbibliotek", "area": "Halsnæs Kommune. Bibliotekerne", "street": "Torvet 41", "postcode": "3300", "city": "Frederiksværk", "type": "Folkebibliotek", "geo": {"lat": 55.971932, "lng": 12.019282}},
{"id": "726001", "name": "Hundested Lokalbibliotek", "area": "Halsnæs Kommune. Bibliotekerne", "street": "Nørregade 61", "postcode": "3390", "city": "Hundested", "type": "Folkebibliotek", "geo": {"lat": 55.959432, "lng": 11.852819}},
{"id": "726500", "name": "Roskilde Bibliotek", "area": "Roskilde Bibliotekerne", "street": "Dronning Margrethes Vej 14 Postbox 229", "postcode": "4000", "city": "Roskilde", "type": "Folkebibliotek", "geo": {"lat": 55.64191, "lng": 12.087845}},
{"id": "726501", "name": "Bogbussen", "area": "Roskilde Bibliotekerne", "street": "Dronning Margrethes Vej 14 Postbox 229", "postcode": "4000", "city": "Roskilde", "type": "Folkebibliotek", "geo": {"lat": 55.64191, "lng": 12.087845}},
{"id": "726502", "name": "Jyllinge Bibliotek", "area": "Roskilde Bibliotekerne", "street": "Bygaden 19 Box 63", "postcode": "4040", "city": "Jyllinge", "type": "Folkebibliotek", "geo": {"lat": 55.748496, "lng": 12.110293}},
{"id": "726503", "name": "Gundsømagle Bibliotek", "area": "Roskilde Bibliotekerne", "street": "Rosentorvet 8 Gundsømagle", "postcode": "4000", "city": "Roskilde", "type": "Folkebibliotek", "geo": {"lat": 55.7371036, "lng": 12.1489658}},
{"id": "726504", "name": "Ågerup Bibliotek", "area": "Roskilde Bibliotekerne", "street": "Gundsølillevej 2 Ågerup", "postcode": "4000", "city": "Roskilde", "type": "Folkebibliotek", "geo": {"lat": 55.693047, "lng": 12.1608129}},
{"id": "726505", "name": "Viby Bibliotek", "area": "Roskilde Bibliotekerne", "street": "Tofthøjvej 11", "postcode": "4130", "city": "Viby Sj.", "type": "Folkebibliotek", "geo": {"lat": 55.547563, "lng": 12.02673}},
{"id": "726506", "name": "Gadstrup Bibliotek", "area": "Roskilde Bibliotekerne", "street": "Nyvej 40", "postcode": "4621", "city": "Gadstrup", "type": "Folkebibliotek", "geo": {"lat": 55.57302199999999, "lng": 12.09189}},
{"id": "726900", "name": "Solrød Bibliotek", "area": "Solrød Bibliotek", "street": "Solrød Center 4 Postbox 142", "postcode": "2680", "city": "Solrød Strand", "type": "Folkebibliotek", "geo": {"lat": 55.51666700000001, "lng": 12.216667}},
{"id": "726901", "name": "Havdrup afhentningssted. Møllemarken 6", "area": "Solrød Bibliotek", "street": "", "postcode": "", "city": "", "type": "Folkebibliotek"},
{"id": "727000", "name": "Helsinge Bibliotek", "area": "Gribskov kommunes biblioteker", "street": "Skolegade 43", "postcode": "3200", "city": "Helsinge", "type": "Folkebibliotek", "geo": {"lat": 56.02663399999999, "lng": 12.192295}},
{"id": "727002", "name": "Skt. Helene Skole Tisvilde. Åbent bibliotek", "area": "Gribskov kommunes biblioteker", "street": "Tisvilde Bygade 37", "postcode": "3220", "city": "Tisvildeleje", "type": "Folkebibliotek", "geo": {"lat": 56.056382, "lng": 12.0914}},
{"id": "727003", "name": "Gribskov Kommunes servicepunkt på Sankt Helene Skole Vejby", "area": "Gribskov kommunes biblioteker", "street": "Sankt Helene Skole, Femgårdsvej 6", "postcode": "3210", "city": "Vejby", "type": "Folkebibliotek", "geo": {"lat": 56.0649045, "lng": 12.1348267}},
{"id": "727004", "name": "Gilleleje Bibliotek", "area": "Gribskov kommunes biblioteker", "street": "Vesterbrogade 56", "postcode": "3250", "city": "Gilleleje", "type": "Folkebibliotek", "geo": {"lat": 56.12584700000001, "lng": 12.296319}},
{"id": "727005", "name": "BLIK- Græsted Bibliotek", "area": "Gribskov kommunes biblioteker", "street": "Græsted Stationsvej 10 A", "postcode": "3230", "city": "Græsted", "type": "Folkebibliotek", "geo": {"lat": 56.0669862, "lng": 12.2819663}},
{"id": "730600", "name": "Nykøbing Sj. Bibliotek", "area": "Odsherred Bibliotek og Kulturhuse", "street": "Vesterbro Torv", "postcode": "4500", "city": "Nykøbing Sjælland", "type": "Folkebibliotek", "geo": {"lat": 55.9225568, "lng": 11.6654828}},
{"id": "730601", "name": "Asnæs Bibliotek", "area": "Odsherred Bibliotek og Kulturhuse", "street": "Centervejen 91", "postcode": "4550", "city": "Asnæs", "type": "Folkebibliotek", "geo": {"lat": 55.8110436, "lng": 11.5031103}},
{"id": "730602", "name": "Vig Bibliotek", "area": "Odsherred Bibliotek og Kulturhuse", "street": "Ravnsbjergvej 7", "postcode": "4560", "city": "Vig", "type": "Folkebibliotek", "geo": {"lat": 55.8530832, "lng": 11.5758292}},
{"id": "730603", "name": "Hørve Bibliotek", "area": "Odsherred Bibliotek og Kulturhuse", "street": "Vallekildevej 8", "postcode": "4534", "city": "Hørve", "type": "Folkebibliotek", "geo": {"lat": 55.7525466, "lng": 11.4533357}},
{"id": "730604", "name": "Rørvig Bibliotek", "area": "Odsherred Bibliotek og Kulturhuse", "street": "Vestergade 24", "postcode": "4581", "city": "Rørvig", "type": "Folkebibliotek", "geo": {"lat": 55.94137500000001, "lng": 11.7504198}},
{"id": "731600", "name": "Holbæk Bibliotek", "area": "Holbæk Bibliotek", "street": "Nygade 9-13", "postcode": "4300", "city": "Holbæk", "type": "Folkebibliotek", "geo": {"lat": 55.71686649999999, "lng": 11.7091302}},
{"id": "731601", "name": "Jyderup Bibliotek", "area": "Holbæk Bibliotek", "street": "Skarridsøgade 37", "postcode": "4450", "city": "Jyderup", "type": "Folkebibliotek", "geo": {"lat": 55.65989740000001, "lng": 11.3983369}},
{"id": "731602", "name": "Svinninge Bibliotek", "area": "Holbæk Bibliotek", "street": "Hovedgaden 59", "postcode": "4520", "city": "Svinninge", "type": "Folkebibliotek", "geo": {"lat": 55.7219028, "lng": 11.4615303}},
{"id": "731603", "name": "Tølløse Bibliotek", "area": "Holbæk Bibliotek", "street": "Hjortholmvej 9", "postcode": "4340", "city": "Tølløse", "type": "Folkebibliotek", "geo": {"lat": 55.616226, "lng": 11.761498}},
{"id": "731605", "name": "Orø Bibliotek", "area": "Holbæk Bibliotek", "street": "Bygaden 50", "postcode": "4300", "city": "Holbæk", "type": "Folkebibliotek", "geo": {"lat": 55.766702, "lng": 11.807179}},
{"id": "731621", "name": "Undløse", "area": "Holbæk Bibliotek", "street": "Datastuen Østergårdsvej 49, Undløse", "postcode": "4340", "city": "Tølløse", "type": "Folkebibliotek", "geo": {"lat": 55.603692, "lng": 11.587638}},
{"id": "731622", "name": "Mørkøv", "area": "Holbæk Bibliotek", "street": "Det gamle Bibliotek, Ringstedvej 3", "postcode": "4440", "city": "Mørkøv", "type": "Folkebibliotek", "geo": {"lat": 55.649615, "lng": 11.502495}},
{"id": "732000", "name": "Haslev Bibliotek", "area": "Faxe Kommunes Biblioteker", "street": "Jernbanegade 62", "postcode": "4690", "city": "Haslev", "type": "Folkebibliotek", "geo": {"lat": 55.32460099999999, "lng": 11.96355}},
{"id": "732001", "name": "Faxe Bibliotek", "area": "Faxe Kommunes Biblioteker", "street": "Rådhusvej 4", "postcode": "4640", "city": "Faxe", "type": "Folkebibliotek", "geo": {"lat": 55.251191, "lng": 12.120191}},
{"id": "732010", "name": "Karise MikroBibliotek", "area": "Faxe Kommunes Biblioteker", "street": "SuperBrugsen,  Syrenvænget 20", "postcode": "4653", "city": "Karise", "type": "Folkebibliotek", "geo": {"lat": 55.303779, "lng": 12.1992939}},
{"id": "732011", "name": "Rønnede MikroBibliotek", "area": "Faxe Kommunes Biblioteker", "street": "SuperBest Vordingborgvej 517", "postcode": "4683", "city": "Rønnede", "type": "Folkebibliotek", "geo": {"lat": 55.259224, "lng": 12.021819}},
{"id": "732600", "name": "Kalundborg Bibliotek", "area": "Kalundborg Bibliotek", "street": "Klostertorvet 2", "postcode": "4400", "city": "Kalundborg", "type": "Folkebibliotek", "geo": {"lat": 55.6815781, "lng": 11.0860766}},
{"id": "732601", "name": "Gørlev Bibliotek", "area": "Kalundborg Bibliotek", "street": "Algade 35", "postcode": "4281", "city": "Gørlev", "type": "Folkebibliotek", "geo": {"lat": 55.539452, "lng": 11.225361}},
{"id": "732602", "name": "Høng Bibliotek", "area": "Kalundborg Bibliotek", "street": "Odinsvej 27", "postcode": "4270", "city": "Høng", "type": "Folkebibliotek", "geo": {"lat": 55.5087632, "lng": 11.2958073}},
{"id": "732603", "name": "Sejerø Bibliotek", "area": "Kalundborg Bibliotek", "street": "Mastrupvej 18", "postcode": "4592", "city": "Sejerø", "type": "Folkebibliotek", "geo": {"lat": 55.8797104, "lng": 11.1434117}},
{"id": "732604", "name": "Ubby Bibliotek", "area": "Kalundborg Bibliotek", "street": "Hovedgaden 19", "postcode": "4490", "city": "Jerslev Sj.", "type": "Folkebibliotek", "geo": {"lat": 55.620681, "lng": 11.209156}},
{"id": "732606", "name": "Eskebjerg Bibliotek", "area": "Kalundborg Bibliotek", "street": "Eskebjergvej 67", "postcode": "4593", "city": "Eskebjerg", "type": "Folkebibliotek", "geo": {"lat": 55.713006, "lng": 11.301053}},
{"id": "732900", "name": "Ringsted Bibliotek", "area": "Ringsted Bibliotek", "street": "Tværallé 1-3", "postcode": "4100", "city": "Ringsted", "type": "Folkebibliotek", "geo": {"lat": 55.4462543, "lng": 11.7996316}},
{"id": "732901", "name": "Bogbussen", "area": "Ringsted Bibliotek", "street": "Tværallé 1-3", "postcode": "4100", "city": "Ringsted", "type": "Folkebibliotek", "geo": {"lat": 55.4462543, "lng": 11.7996316}},
{"id": "733000", "name": "Slagelse Bibliotek", "area": "Slagelse Bibliotekerne", "street": "Stenstuegade 3", "postcode": "4200", "city": "Slagelse", "type": "Folkebibliotek", "geo": {"lat": 55.403121, "lng": 11.35254}},
{"id": "733001", "name": "Korsør Bibliotek", "area": "Slagelse Bibliotekerne", "street": "Bernstensgade 3", "postcode": "4220", "city": "Korsør", "type": "Folkebibliotek", "geo": {"lat": 55.337786, "lng": 11.13568}},
{"id": "733002", "name": "Skælskør Bibliotek", "area": "Slagelse Bibliotekerne", "street": "Vestergade 4", "postcode": "4230", "city": "Skælskør", "type": "Folkebibliotek", "geo": {"lat": 55.254125, "lng": 11.291244}},
{"id": "733003", "name": "Vemmelev Servicepunkt DagliBrugsen", "area": "Slagelse Bibliotekerne", "street": "Akacievej 2", "postcode": "4241", "city": "Vemmelev", "type": "Folkebibliotek", "geo": {"lat": 55.3637919, "lng": 11.2597764}},
{"id": "733010", "name": "Dalmose Servicepunkt Dagli Brugsen", "area": "Slagelse Bibliotekerne", "street": "Lodsvej 1", "postcode": "4261", "city": "Dalmose", "type": "Folkebibliotek", "geo": {"lat": 55.2914514, "lng": 11.4231076}},
{"id": "733600", "name": "Store Heddinge Bibliotek", "area": "Stevns Bibliotekerne", "street": "Kirketorvet 2", "postcode": "4660", "city": "Store Heddinge", "type": "Folkebibliotek", "geo": {"lat": 55.31258399999999, "lng": 12.389713}},
{"id": "733601", "name": "Hårlev Bibliotek", "area": "Stevns Bibliotekerne", "street": "Bredgade 1", "postcode": "4652", "city": "Hårlev", "type": "Folkebibliotek", "geo": {"lat": 55.350787, "lng": 12.233255}},
{"id": "733602", "name": "Strøby Egede Bibliotek", "area": "Stevns Bibliotekerne", "street": "Strøby Egede Center 11", "postcode": "4600", "city": "Køge", "type": "Folkebibliotek", "geo": {"lat": 55.4165189, "lng": 12.2424689}},
{"id": "734000", "name": "Sorø Bibliotek", "area": "Sorø Bibliotek", "street": "Storgade 7", "postcode": "4180", "city": "Sorø", "type": "Folkebibliotek", "geo": {"lat": 55.432372, "lng": 11.5560836}},
{"id": "734001", "name": "Dianalund Bibliotek", "area": "Sorø Bibliotek", "street": "Sømosevej 44", "postcode": "4293", "city": "Dianalund", "type": "Folkebibliotek", "geo": {"lat": 55.52719889999999, "lng": 11.4947972}},
{"id": "734010", "name": "Afhentningssted Stenlille Røde Kors Butik", "area": "Sorø Bibliotek", "street": "Hovedgaden 40", "postcode": "4295", "city": "Stenlille", "type": "Folkebibliotek", "geo": {"lat": 55.5395021, "lng": 11.5902258}},
{"id": "735000", "name": "Kirke Hyllinge Bibliotek", "area": "Lejre Bibliotekerne", "street": "Bygaden 53", "postcode": "4070", "city": "Kirke-Hyllinge", "type": "Folkebibliotek", "geo": {"lat": 55.708438, "lng": 11.898669}},
{"id": "735001", "name": "Hvalsø Bibliotek", "area": "Lejre Bibliotekerne", "street": "Skolevej 12", "postcode": "4330", "city": "Hvalsø", "type": "Folkebibliotek", "geo": {"lat": 55.5932207, "lng": 11.8575913}},
{"id": "735002", "name": "Osted Bibliotek", "area": "Lejre Bibliotekerne", "street": "Langetoften 25, Osted", "postcode": "4320", "city": "Lejre", "type": "Folkebibliotek", "geo": {"lat": 55.5619859, "lng": 11.9627256}},
{"id": "736000", "name": "LollandBibliotekerne, Nakskov", "area": "LollandBibliotekerne", "street": "Søvej 8", "postcode": "4900", "city": "Nakskov", "type": "Folkebibliotek", "geo": {"lat": 54.834957, "lng": 11.138254}},
{"id": "736001", "name": "LollandBibliotekerne, Maribo", "area": "LollandBibliotekerne", "street": "Østre Landevej 33", "postcode": "4930", "city": "Maribo", "type": "Folkebibliotek", "geo": {"lat": 54.777015, "lng": 11.514946}},
{"id": "736002", "name": "Lollandbibliotekerne, Rødbyhavn Bibliotek", "area": "LollandBibliotekerne", "street": "Skolegade 1, Rødbyhavn", "postcode": "4970", "city": "Rødby", "type": "Folkebibliotek", "geo": {"lat": 54.661133, "lng": 11.354695}},
{"id": "736011", "name": "LollandBibliotekerne. Søllested bibliotekspunkt: Fakta", "area": "LollandBibliotekerne", "street": "Jernbanegade 18", "postcode": "4920", "city": "Søllested", "type": "Folkebibliotek", "geo": {"lat": 54.8109615, "lng": 11.2683734}},
{"id": "736012", "name": "LollandBibliotekerne. Horslunde bibliotekspunkt: Horslunde Bageri", "area": "LollandBibliotekerne", "street": "Hovedgaden 6", "postcode": "4913", "city": "Horslunde", "type": "Folkebibliotek", "geo": {"lat": 54.9101833, "lng": 11.2170846}},
{"id": "736013", "name": "LollandBibliotekerne. Holeby bibliotekspunkt: Dagli' Brugsen", "area": "LollandBibliotekerne", "street": "Vestervej 3c", "postcode": "4960", "city": "Holeby", "type": "Folkebibliotek", "geo": {"lat": 54.708818, "lng": 11.473089}},
{"id": "736014", "name": "LollandBibliotekerne. Fejø  bibliotekspunkt: Letkøb Fejø", "area": "LollandBibliotekerne", "street": "Herredsvej 259", "postcode": "4944", "city": "Fejø", "type": "Folkebibliotek", "geo": {"lat": 54.9511807, "lng": 11.4294413}},
{"id": "736015", "name": "LollandBibliotekerne. Femø bibliotekspunkt: Femø præstegård", "area": "LollandBibliotekerne", "street": "Kirkehældevej 29", "postcode": "4930", "city": "Maribo", "type": "Folkebibliotek", "geo": {"lat": 54.970681, "lng": 11.531587}},
{"id": "736017", "name": "LollandBibliotekerne. Stokkemarke bibliotekspunkt: Dagli'Brugsen", "area": "LollandBibliotekerne", "street": "Vestre Landevej 270", "postcode": "4952", "city": "Stokkemarke", "type": "Folkebibliotek", "geo": {"lat": 54.8373407, "lng": 11.366563}},
{"id": "736018", "name": "LollandBibliotekerne. Dannemare bibliotekspunkt: Dagli'Brugsen", "area": "LollandBibliotekerne", "street": "Bygaden 53", "postcode": "4983", "city": "Dannemare", "type": "Folkebibliotek", "geo": {"lat": 54.760606, "lng": 11.187368}},
{"id": "737000", "name": "Næstved Bibliotek", "area": "Næstved Bibliotek  og Borgerservice", "street": "Kvægtorvet 4-6", "postcode": "4700", "city": "Næstved", "type": "Folkebibliotek", "geo": {"lat": 55.233164, "lng": 11.760422}},
{"id": "737001", "name": "Fensmark Bibliotek", "area": "Næstved Bibliotek  og Borgerservice", "street": "Kildegårdsvej 56, Fensmark", "postcode": "4684", "city": "Holmegaard", "type": "Folkebibliotek", "geo": {"lat": 55.2784, "lng": 11.808098}},
{"id": "737002", "name": "Fuglebjerg Bibliotek", "area": "Næstved Bibliotek  og Borgerservice", "street": "Byagervej 1", "postcode": "4250", "city": "Fuglebjerg", "type": "Folkebibliotek", "geo": {"lat": 55.30283499999999, "lng": 11.543996}},
{"id": "737003", "name": "Glumsø Bibliotek", "area": "Næstved Bibliotek  og Borgerservice", "street": "Torvet 1", "postcode": "4171", "city": "Glumsø", "type": "Folkebibliotek", "geo": {"lat": 55.354264, "lng": 11.690303}},
{"id": "737005", "name": "Korskilde Bibliotek", "area": "Næstved Bibliotek  og Borgerservice", "street": "Korskildevej 2 A, Brøderup", "postcode": "4733", "city": "Tappernøje", "type": "Folkebibliotek", "geo": {"lat": 55.1790671, "lng": 11.9746628}},
{"id": "737600", "name": "Hovedbiblioteket", "area": "Guldborgsund-bibliotekerne", "street": "Rosenvænget 17", "postcode": "4800", "city": "Nykøbing Falster", "type": "Folkebibliotek", "geo": {"lat": 54.7693089, "lng": 11.8698041}},
{"id": "737601", "name": "Nysted Bibliotek", "area": "Guldborgsund-bibliotekerne", "street": "Adelgade 11", "postcode": "4880", "city": "Nysted", "type": "Folkebibliotek", "geo": {"lat": 54.669328, "lng": 11.728738}},
{"id": "737602", "name": "Nørre Alslev Bibliotek", "area": "Guldborgsund-bibliotekerne", "street": "Helene Strangesvej 1", "postcode": "4840", "city": "Nørre Alslev", "type": "Folkebibliotek", "geo": {"lat": 54.899552, "lng": 11.873134}},
{"id": "737603", "name": "Sakskøbing Bibliotek", "area": "Guldborgsund-bibliotekerne", "street": "Rådhusgade 6", "postcode": "4990", "city": "Sakskøbing", "type": "Folkebibliotek", "geo": {"lat": 54.7977338, "lng": 11.6353457}},
{"id": "737604", "name": "Stubbekøbing Bibliotek", "area": "Guldborgsund-bibliotekerne", "street": "Dosseringen 3", "postcode": "4850", "city": "Stubbekøbing", "type": "Folkebibliotek", "geo": {"lat": 54.8913307, "lng": 12.0413789}},
{"id": "737605", "name": "Væggerløse Bibliotek", "area": "Guldborgsund-bibliotekerne", "street": "Stovbyvej 3", "postcode": "4873", "city": "Væggerløse", "type": "Folkebibliotek", "geo": {"lat": 54.712927, "lng": 11.923891}},
{"id": "737607", "name": "Servicepunkt Gedser", "area": "Guldborgsund-bibliotekerne", "street": "E. Schiødtsgade 2  ", "postcode": "4874 ", "city": "Gedser", "type": "Folkebibliotek", "geo": {"lat": 54.5758245, "lng": 11.9305815}},
{"id": "737608", "name": "Servicepunkt Nykøbing Katedralskole", "area": "Guldborgsund-bibliotekerne", "street": "Poul Martin Møllersvej 3", "postcode": "4800", "city": "Nykøbing F", "type": "Folkebibliotek", "geo": {"lat": 54.774502, "lng": 11.875876}},
{"id": "739000", "name": "Vordingborg Bibliotek", "area": "Vordingborg Bibliotekerne", "street": "Sydhavnsvej 6", "postcode": "4760", "city": "Vordingborg", "type": "Folkebibliotek", "geo": {"lat": 54.99743, "lng": 11.891686}},
{"id": "739001", "name": "Møn Bibliotek", "area": "Vordingborg Bibliotekerne", "street": "Møllebrøndstræde 12", "postcode": "4780", "city": "Stege", "type": "Folkebibliotek", "geo": {"lat": 54.987522, "lng": 12.288116}},
{"id": "739002", "name": "Præstø Bibliotek", "area": "Vordingborg Bibliotekerne", "street": "Lindevej 45", "postcode": "4720", "city": "Præstø", "type": "Folkebibliotek", "geo": {"lat": 55.12117629999999, "lng": 12.0477779}},
{"id": "739003", "name": "Lundby Bibliotek", "area": "Vordingborg Bibliotekerne", "street": "Lundby Hovedgade 100", "postcode": "4750", "city": "Lundby", "type": "Folkebibliotek", "geo": {"lat": 55.109232, "lng": 11.879155}},
{"id": "739004", "name": "Bogbus Vordingborg", "area": "Vordingborg Bibliotekerne", "street": "Sydhavnsvej 6", "postcode": "4760", "city": "Vordingborg", "type": "Folkebibliotek", "geo": {"lat": 54.99743, "lng": 11.891686}},
{"id": "739011", "name": "Servicepunkt Vordingborg Gymnasium & HF", "area": "Vordingborg Bibliotekerne", "street": "Chr. Richardtsvej 45", "postcode": "4760", "city": "Vordingborg", "type": "Folkebibliotek", "geo": {"lat": 55.0145585, "lng": 11.914924}},
{"id": "740000", "name": "Bornholms Biblioteker, Rønne Bibliotek", "area": "Bornholms Biblioteker", "street": "Pingels Alle 1", "postcode": "3700", "city": "Rønne", "type": "Folkebibliotek", "geo": {"lat": 55.101762, "lng": 14.707298}},
{"id": "740001", "name": "Bornholms Biblioteker, Allinge Bibliotek", "area": "Bornholms Biblioteker", "street": "Sverigesvej 1", "postcode": "3770", "city": "Allinge", "type": "Folkebibliotek", "geo": {"lat": 55.27996899999999, "lng": 14.799211}},
{"id": "740002", "name": "Bornholms Biblioteker, Gudhjem Bibliotek", "area": "Bornholms Biblioteker", "street": "Åbogade 7", "postcode": "3760", "city": "Gudhjem", "type": "Folkebibliotek", "geo": {"lat": 55.21197, "lng": 14.970807}},
{"id": "740003", "name": "Bornholms Biblioteker, Hasle Bibliotek", "area": "Bornholms Biblioteker", "street": "Toftelunden 1", "postcode": "3790", "city": "Hasle", "type": "Folkebibliotek", "geo": {"lat": 55.18070849999999, "lng": 14.7152359}},
{"id": "740006", "name": "Bornholms Biblioteker, Nexø Bibliotek", "area": "Bornholms Biblioteker", "street": "Kildestræde 20", "postcode": "3730", "city": "Nexø", "type": "Folkebibliotek", "geo": {"lat": 55.06152350000001, "lng": 15.1288394}},
{"id": "740007", "name": "Bornholms Biblioteker, Svaneke Bibliotek", "area": "Bornholms Biblioteker", "street": "Borgergade 4", "postcode": "3740", "city": "Svaneke", "type": "Folkebibliotek", "geo": {"lat": 55.136911, "lng": 15.140331}},
{"id": "740008", "name": "Bornholms Biblioteker, Aakirkeby Bibliotek", "area": "Bornholms Biblioteker", "street": "Eskildsgade 15", "postcode": "3720", "city": "Aakirkeby", "type": "Folkebibliotek", "geo": {"lat": 55.070708, "lng": 14.92362}},
{"id": "740009", "name": "Bornholms Biblioteker, Christiansø Bibliotek", "area": "Bornholms Biblioteker", "street": "Christiansø", "postcode": "3760", "city": "Gudhjem", "type": "Folkebibliotek", "geo": {"lat": 55.3220752, "lng": 15.1837394}},
{"id": "741000", "name": "Middelfart Bibliotek", "area": "Middelfart Bibliotek", "street": "KulturØen Havnegade 6", "postcode": "5500", "city": "Middelfart", "type": "Folkebibliotek", "geo": {"lat": 55.50570339999999, "lng": 9.736681299999999}},
{"id": "741001", "name": "Strib Bibliotek", "area": "Middelfart Bibliotek", "street": "Vestergade 16", "postcode": "5500", "city": "Middelfart", "type": "Folkebibliotek", "geo": {"lat": 55.54142, "lng": 9.763785}},
{"id": "741002", "name": "Ejby Bibliotek", "area": "Middelfart Bibliotek", "street": "Anlægsvej 4A", "postcode": "5592", "city": "Ejby", "type": "Folkebibliotek", "geo": {"lat": 55.43147, "lng": 9.9332689}},
{"id": "741003", "name": "Nørre Aaby Bibliotek", "area": "Middelfart Bibliotek", "street": "Østergade 19", "postcode": "5580", "city": "Nørre Åby", "type": "Folkebibliotek", "geo": {"lat": 55.459909, "lng": 9.876438}},
{"id": "742000", "name": "Assens Bibliotek", "area": "AssensBibliotekerne", "street": "Korsvangcentret", "postcode": "5610", "city": "Assens", "type": "Folkebibliotek", "geo": {"lat": 55.270035, "lng": 9.914183999999999}},
{"id": "742001", "name": "Glamsbjerg Lokalbibliotek", "area": "AssensBibliotekerne", "street": "Søndergade 3 A", "postcode": "5620", "city": "Glamsbjerg", "type": "Folkebibliotek", "geo": {"lat": 55.2785539, "lng": 10.1052147}},
{"id": "742002", "name": "Hårby Lokalbibliotek", "area": "AssensBibliotekerne", "street": "Skolevej 10 A", "postcode": "5683", "city": "Haarby", "type": "Folkebibliotek", "geo": {"lat": 55.222348, "lng": 10.1243079}},
{"id": "742003", "name": "Tommerup Lokalbibliotek", "area": "AssensBibliotekerne", "street": "Tallerupvej 85", "postcode": "5690", "city": "Tommerup", "type": "Folkebibliotek", "geo": {"lat": 55.340236, "lng": 10.18116}},
{"id": "742004", "name": "Vissenbjerg Lokalbibliotek", "area": "AssensBibliotekerne", "street": "Vestergade 2", "postcode": "5492", "city": "Vissenbjerg", "type": "Folkebibliotek", "geo": {"lat": 55.3852754, "lng": 10.1313915}},
{"id": "742005", "name": "Årup Lokalbibliotek", "area": "AssensBibliotekerne", "street": "Bredgade 73", "postcode": "5560", "city": "Aarup", "type": "Folkebibliotek", "geo": {"lat": 55.3786736, "lng": 10.047568}},
{"id": "743000", "name": "Faaborg Bibliotek", "area": "Faaborg-Midtfyn Bibliotekerne", "street": "Herregårdscentret", "postcode": "5600", "city": "Faaborg", "type": "Folkebibliotek", "geo": {"lat": 55.1012989, "lng": 10.2407226}},
{"id": "743001", "name": "Ringe Bibliotek", "area": "Faaborg-Midtfyn Bibliotekerne", "street": "Algade 40", "postcode": "5750", "city": "Ringe", "type": "Folkebibliotek", "geo": {"lat": 55.237028, "lng": 10.4792076}},
{"id": "743002", "name": "Årslev Bibliotek", "area": "Faaborg-Midtfyn Bibliotekerne", "street": "Kirkevej 14", "postcode": "5792", "city": "Årslev", "type": "Folkebibliotek", "geo": {"lat": 55.3083181, "lng": 10.4901691}},
{"id": "743003", "name": "Broby Bibliotek", "area": "Faaborg-Midtfyn Bibliotekerne", "street": "Egeballe 4 A", "postcode": "5672", "city": "Broby", "type": "Folkebibliotek", "geo": {"lat": 55.256033, "lng": 10.235524}},
{"id": "744000", "name": "Munkebo Bibliotek", "area": "Kerteminde Bibliotekerne", "street": "Lindøalléen 47", "postcode": "5330", "city": "Munkebo", "type": "Folkebibliotek", "geo": {"lat": 55.4591045, "lng": 10.5582028}},
{"id": "744001", "name": "Kerteminde Bibliotek", "area": "Kerteminde Bibliotekerne", "street": "Langegade 13-15", "postcode": "5300", "city": "Kerteminde", "type": "Folkebibliotek", "geo": {"lat": 55.4492163, "lng": 10.6575406}},
{"id": "744002", "name": "Langeskov Bibliotek", "area": "Kerteminde Bibliotekerne", "street": "Jernbanegade 14", "postcode": "5550", "city": "Langeskov", "type": "Folkebibliotek", "geo": {"lat": 55.3600957, "lng": 10.5916411}},
{"id": "745000", "name": "Nyborg Bibliotek", "area": "Nyborg Bibliotek", "street": "Torvet", "postcode": "5800", "city": "Nyborg", "type": "Folkebibliotek", "geo": {"lat": 55.3128806, "lng": 10.7892488}},
{"id": "745001", "name": "Ullerslev Bibliotek", "area": "Nyborg Bibliotek", "street": "Skolevej 2", "postcode": "5540", "city": "Ullerslev", "type": "Folkebibliotek", "geo": {"lat": 55.359899, "lng": 10.6709859}},
{"id": "745002", "name": "Ørbæk Bibliotek", "area": "Nyborg Bibliotek", "street": "Ørbæk Midtpunkt, Langemosevej 5", "postcode": "5853", "city": "Ørbæk", "type": "Folkebibliotek", "geo": {"lat": 55.253823, "lng": 10.674902}},
{"id": "746100", "name": "Odense Centralbibliotek", "area": "Odense Centralbibliotek", "street": "Østre Stationsvej 15", "postcode": "5000", "city": "Odense C", "type": "Folkebibliotek", "geo": {"lat": 55.40116, "lng": 10.388635}},
{"id": "746102", "name": "Bolbro Bibliotek", "area": "Odense Centralbibliotek", "street": "Middelfartvej 81", "postcode": "5200", "city": "Odense V.", "type": "Folkebibliotek", "geo": {"lat": 55.394197, "lng": 10.35157}},
{"id": "746103", "name": "Dalum Bibliotek", "area": "Odense Centralbibliotek", "street": "Dalumvej 95", "postcode": "5250", "city": "Odense SV", "type": "Folkebibliotek", "geo": {"lat": 55.365681, "lng": 10.373476}},
{"id": "746104", "name": "Højby Bibliotek", "area": "Odense Centralbibliotek", "street": "Nørrelunden 20", "postcode": "5260", "city": "Odense S", "type": "Folkebibliotek", "geo": {"lat": 55.33296199999999, "lng": 10.44119}},
{"id": "746106", "name": "Musikbiblioteket", "area": "Odense Centralbibliotek", "street": "Østre Stationsvej 33", "postcode": "5000", "city": "Odense C", "type": "Folkebibliotek", "geo": {"lat": 55.3998169, "lng": 10.38157}},
{"id": "746110", "name": "Tarup Bibliotek", "area": "Odense Centralbibliotek", "street": "Rugvang 40", "postcode": "5210", "city": "Odense NV", "type": "Folkebibliotek", "geo": {"lat": 55.410381, "lng": 10.33609}},
{"id": "746111", "name": "Vollsmose Bibliotek", "area": "Odense Centralbibliotek", "street": "Vollsmose Alle 10", "postcode": "5240", "city": "Odense NØ", "type": "Folkebibliotek", "geo": {"lat": 55.4067885, "lng": 10.441249}},
{"id": "746112", "name": "Holluf Pile Bibliotek", "area": "Odense Centralbibliotek", "street": "Nøglens Kvarter 10", "postcode": "5220", "city": "Odense SØ", "type": "Folkebibliotek", "geo": {"lat": 55.3660934, "lng": 10.4496394}},
{"id": "746113", "name": "Korup Bibliotek", "area": "Odense Centralbibliotek", "street": "Præstevej 12", "postcode": "5210", "city": "Odense NV", "type": "Folkebibliotek", "geo": {"lat": 55.42163610000001, "lng": 10.2664359}},
{"id": "747900", "name": "Svendborg Bibliotek", "area": "Svendborg Bibliotek", "street": "Svinget 1", "postcode": "5700", "city": "Svendborg", "type": "Folkebibliotek", "geo": {"lat": 55.0616454, "lng": 10.6028347}},
{"id": "747901", "name": "Thurø Bibliotek", "area": "Svendborg Bibliotek", "street": "Bergmannsvej 70,", "postcode": "5700", "city": "Svendborg.", "type": "Folkebibliotek", "geo": {"lat": 55.04821519999999, "lng": 10.6700866}},
{"id": "747902", "name": "Skårup Bibliotek", "area": "Svendborg Bibliotek", "street": "P.A.Wedelsvej 2,", "postcode": "5881", "city": "Skårup", "type": "Folkebibliotek", "geo": {"lat": 55.09382000000001, "lng": 10.6891269}},
{"id": "747904", "name": "Landet Bibliotek", "area": "Svendborg Bibliotek", "street": "Biblioteksvej 1, Landet,", "postcode": "5700", "city": "Svendborg", "type": "Folkebibliotek", "geo": {"lat": 54.99847699999999, "lng": 10.596785}},
{"id": "747906", "name": "Drejø Bibliotek", "area": "Svendborg Bibliotek", "street": "Drejø", "postcode": "5700", "city": "Svendborg.", "type": "Folkebibliotek", "geo": {"lat": 54.9702467, "lng": 10.4190476}},
{"id": "747907", "name": "Gudme Bibliotek", "area": "Svendborg Bibliotek", "street": "Højsagervej 6", "postcode": "5884", "city": "Gudme", "type": "Folkebibliotek", "geo": {"lat": 55.1528528, "lng": 10.7070899}},
{"id": "747908", "name": "Stenstrup Bibliotek", "area": "Svendborg Bibliotek", "street": "Skolevej 2", "postcode": "5771", "city": "Stenstrup", "type": "Folkebibliotek", "geo": {"lat": 55.132434, "lng": 10.502222}},
{"id": "747909", "name": "Vester Skerninge Bibliotek", "area": "Svendborg Bibliotek", "street": "Fåborgvej 53", "postcode": "5762", "city": "Vester Skerninge", "type": "Folkebibliotek", "geo": {"lat": 55.0732223, "lng": 10.4492831}},
{"id": "748000", "name": "Otterup Bibliotek", "area": "Bibliotek og Borgerservice Nordfyns Kommune", "street": "Søndergade 2", "postcode": "5450", "city": "Otterup", "type": "Folkebibliotek", "geo": {"lat": 55.51501, "lng": 10.399024}},
{"id": "748001", "name": "Søndersø Bibliotek", "area": "Bibliotek og Borgerservice Nordfyns Kommune", "street": "Odensevej 8", "postcode": "5471", "city": "Søndersø", "type": "Folkebibliotek", "geo": {"lat": 55.485419, "lng": 10.251064}},
{"id": "748002", "name": "Bogense Bibliotek", "area": "Bibliotek og Borgerservice Nordfyns Kommune", "street": "Vestergade 24", "postcode": "5400", "city": "Bogense", "type": "Folkebibliotek", "geo": {"lat": 55.5640197, "lng": 10.0883486}},
{"id": "748200", "name": "Langeland Bibliotek", "area": "Langeland Bibliotek", "street": "Østerport 5-7", "postcode": "5900", "city": "Rudkøbing", "type": "Folkebibliotek", "geo": {"lat": 54.935363, "lng": 10.717631}},
{"id": "748210", "name": "Langeland Biblioteks Bogbil", "area": "Langeland Bibliotek", "street": "Østerport 5-7", "postcode": "5900", "city": "Rudkøbing", "type": "Folkebibliotek", "geo": {"lat": 54.935363, "lng": 10.717631}},
{"id": "749200", "name": "Ærø Folkebibliotek", "area": "Ærø Folkebibliotek", "street": "Søndergade 16B", "postcode": "5970", "city": "Ærøskøbing", "type": "Folkebibliotek", "geo": {"lat": 54.88775949999999, "lng": 10.4111674}},
{"id": "749201", "name": "Marstal Bibliotek", "area": "Ærø Folkebibliotek", "street": "Skolegade 28", "postcode": "5960", "city": "Marstal", "type": "Folkebibliotek", "geo": {"lat": 54.8535433, "lng": 10.5187728}},
{"id": "751000", "name": "Haderslev afdeling", "area": "Haderslev Bibliotekerne", "street": "Bispebroen 3", "postcode": "6100", "city": "Haderslev", "type": "Folkebibliotek", "geo": {"lat": 55.250414, "lng": 9.484710999999999}},
{"id": "751001", "name": "Gram afdeling", "area": "Haderslev Bibliotekerne", "street": "Østergade 10", "postcode": "6510", "city": "Gram", "type": "Folkebibliotek", "geo": {"lat": 55.2870143, "lng": 9.0508825}},
{"id": "751002", "name": "Vojens afdeling", "area": "Haderslev Bibliotekerne", "street": "Vestergade 84", "postcode": "6500", "city": "Vojens", "type": "Folkebibliotek", "geo": {"lat": 55.2448007, "lng": 9.293324}},
{"id": "753000", "name": "Magion Bibliotek", "area": "Billund Bibliotekerne og borgerservice", "street": "Tinghusgade 15", "postcode": "7200", "city": "Grindsted", "type": "Folkebibliotek", "geo": {"lat": 55.75293509999999, "lng": 8.9212072}},
{"id": "753001", "name": "Billund Bibliotek", "area": "Billund Bibliotekerne og borgerservice", "street": "Hans Jensens Vej 6", "postcode": "7190", "city": "Billund", "type": "Folkebibliotek", "geo": {"lat": 55.7306555, "lng": 9.1180936}},
{"id": "753002", "name": "Vorbasse Bibliotek", "area": "Billund Bibliotekerne og borgerservice", "street": "Drivvejen 1", "postcode": "6623", "city": "Vorbasse", "type": "Folkebibliotek", "geo": {"lat": 55.6272591, "lng": 9.0819464}},
{"id": "753003", "name": "Sdr. Omme Bibliotek", "area": "Billund Bibliotekerne og borgerservice", "street": "Stadion Alle 16", "postcode": "7260", "city": "Sdr. Omme", "type": "Folkebibliotek", "geo": {"lat": 55.84072699999999, "lng": 8.891382}},
{"id": "754000", "name": "Biblioteket Sønderborg", "area": "Biblioteket Sønderborg", "street": "Kongevej 19-27", "postcode": "6400", "city": "Sønderborg", "type": "Folkebibliotek", "geo": {"lat": 54.910175, "lng": 9.7961639}},
{"id": "754001", "name": "Biblioteket Augustenborg", "area": "Biblioteket Sønderborg", "street": "Kettingvej 1 a", "postcode": "6440", "city": "Augustenborg", "type": "Folkebibliotek", "geo": {"lat": 54.9466504, "lng": 9.8725239}},
{"id": "754002", "name": "Biblioteket Broager", "area": "Biblioteket Sønderborg", "street": "Storegade 6 A", "postcode": "6310", "city": "Broager", "type": "Folkebibliotek", "geo": {"lat": 54.88958599999999, "lng": 9.674496999999999}},
{"id": "754003", "name": "Biblioteket Dybbøl", "area": "Biblioteket Sønderborg", "street": "Gammel Aabenraavej 20", "postcode": "6400", "city": "Sønderborg", "type": "Folkebibliotek", "geo": {"lat": 54.911066, "lng": 9.766715999999999}},
{"id": "754004", "name": "Biblioteket Gråsten", "area": "Biblioteket Sønderborg", "street": "Ahlefeldvej 4", "postcode": "6300", "city": "Gråsten", "type": "Folkebibliotek", "geo": {"lat": 54.919526, "lng": 9.5905919}},
{"id": "754005", "name": "Guderup", "area": "Biblioteket Sønderborg", "street": "Skolegade 21", "postcode": "6430", "city": "Nordborg", "type": "Folkebibliotek", "geo": {"lat": 54.99182399999999, "lng": 9.863987999999999}},
{"id": "754006", "name": "Biblioteket Nordborg", "area": "Biblioteket Sønderborg", "street": "Løjtertoft 7", "postcode": "6430", "city": "Nordborg", "type": "Folkebibliotek", "geo": {"lat": 55.056813, "lng": 9.7491}},
{"id": "754007", "name": "Biblioteket Sottrup", "area": "Biblioteket Sønderborg", "street": "Skolevej 8, Vester Sottrup", "postcode": "6400", "city": "Sønderborg", "type": "Folkebibliotek", "geo": {"lat": 54.94969099999999, "lng": 9.699548}},
{"id": "754008", "name": "Biblioteket Hørup", "area": "Biblioteket Sønderborg", "street": "Vestervej 1-3", "postcode": "6470", "city": "Sydals", "type": "Folkebibliotek", "geo": {"lat": 54.9141624, "lng": 9.893942299999999}},
{"id": "754009", "name": "Biblioteket Ulkebøl", "area": "Biblioteket Sønderborg", "street": "Torvet 14, Ulkebøl", "postcode": "6400", "city": "Sønderborg", "type": "Folkebibliotek", "geo": {"lat": 54.92448419999999, "lng": 9.821880199999999}},
{"id": "754010", "name": "Fynshav", "area": "Biblioteket Sønderborg", "street": "Gyden 96 Fynshav", "postcode": "6440", "city": "Augustenborg", "type": "Folkebibliotek", "geo": {"lat": 54.981904, "lng": 9.973298999999999}},
{"id": "755000", "name": "Tønder Bibliotek", "area": "Tønder Kommunes Biblioteker", "street": "Richtsensgade 10", "postcode": "6270", "city": "Tønder", "type": "Folkebibliotek", "geo": {"lat": 54.937416, "lng": 8.86881}},
{"id": "755003", "name": "Løgumkloster Bibliotek", "area": "Tønder Kommunes Biblioteker", "street": "Storegade 16", "postcode": "6240", "city": "Løgumkloster", "type": "Folkebibliotek", "geo": {"lat": 55.058407, "lng": 8.951714899999999}},
{"id": "755004", "name": "Skærbæk Bibliotek", "area": "Tønder Kommunes Biblioteker", "street": "Jernbanegade 2", "postcode": "6780", "city": "Skærbæk", "type": "Folkebibliotek", "geo": {"lat": 55.1581825, "lng": 8.7693312}},
{"id": "755005", "name": "Toftlund Bibliotek", "area": "Tønder Kommunes Biblioteker", "street": "Toldbodgade 8", "postcode": "6520", "city": "Toftlund", "type": "Folkebibliotek", "geo": {"lat": 55.1920345, "lng": 9.0607401}},
{"id": "756100", "name": "Esbjerg Hovedbibliotek", "area": "Esbjerg Kommunes Biblioteker", "street": "Nørregade 19", "postcode": "6700", "city": "Esbjerg", "type": "Folkebibliotek", "geo": {"lat": 55.469201, "lng": 8.454725999999999}},
{"id": "756101", "name": "Sædding Bibliotek", "area": "Esbjerg Kommunes Biblioteker", "street": "Sædding Centret, Tarphagevej", "postcode": "6710", "city": "Esbjerg V.", "type": "Folkebibliotek", "geo": {"lat": 55.498485, "lng": 8.4077023}},
{"id": "756102", "name": "Kvaglund Bibliotek", "area": "Esbjerg Kommunes Biblioteker", "street": "Kvaglund Centret, Kvaglundparken 12", "postcode": "6705", "city": "Esbjerg Ø", "type": "Folkebibliotek", "geo": {"lat": 55.4944916, "lng": 8.4865076}},
{"id": "756103", "name": "Tjæreborg Bibliotek", "area": "Esbjerg Kommunes Biblioteker", "street": "Skolevej 44", "postcode": "6731", "city": "Tjæreborg", "type": "Folkebibliotek", "geo": {"lat": 55.46337159999999, "lng": 8.583962099999999}},
{"id": "756116", "name": "Nordby Bibliotek", "area": "Esbjerg Kommunes Biblioteker", "street": "Nordby Skole, Midtbjergevej 2", "postcode": "6720", "city": "Fanø", "type": "Folkebibliotek", "geo": {"lat": 55.4458849, "lng": 8.395245}},
{"id": "756117", "name": "Sønderho Bibliotek", "area": "Esbjerg Kommunes Biblioteker", "street": "Landevejen 35-41", "postcode": "6720", "city": "Fanø", "type": "Folkebibliotek", "geo": {"lat": 55.3498956, "lng": 8.4685652}},
{"id": "756120", "name": "Bogbus", "area": "Esbjerg Kommunes Biblioteker", "street": "Nørregade 19", "postcode": "6701", "city": "Esbjerg", "type": "Folkebibliotek", "geo": {"lat": 55.469201, "lng": 8.454725999999999}},
{"id": "756121", "name": "Ribe Bibliotek", "area": "Esbjerg Kommunes Biblioteker", "street": "Simon Hansens Vej 1", "postcode": "6760", "city": "Ribe", "type": "Folkebibliotek", "geo": {"lat": 55.331276, "lng": 8.773581000000002}},
{"id": "756122", "name": "Bramming Bibliotek", "area": "Esbjerg Kommunes Biblioteker", "street": "Sct. Knuds Alle 2", "postcode": "6740", "city": "Bramming", "type": "Folkebibliotek", "geo": {"lat": 55.465751, "lng": 8.703061}},
{"id": "757300", "name": "Varde Bibliotek", "area": "Varde Bibliotek", "street": "Rådhusstræde 2", "postcode": "6800", "city": "Varde", "type": "Folkebibliotek", "geo": {"lat": 55.61960500000001, "lng": 8.479887999999999}},
{"id": "757301", "name": "Oksbøl Bibliotek", "area": "Varde Bibliotek", "street": "Vestergade 29", "postcode": "6840", "city": "Oksbøl", "type": "Folkebibliotek", "geo": {"lat": 55.6246442, "lng": 8.2758978}},
{"id": "757302", "name": "Nr. Nebel Bibliotek", "area": "Varde Bibliotek", "street": "Sønder Allé 21", "postcode": "6830", "city": "Nørre Nebel", "type": "Folkebibliotek", "geo": {"lat": 55.77804, "lng": 8.294803}},
{"id": "757304", "name": "Bogbussen", "area": "Varde Bibliotek", "street": "Rådhusstræde 2", "postcode": "6800", "city": "Varde", "type": "Folkebibliotek", "geo": {"lat": 55.61960500000001, "lng": 8.479887999999999}},
{"id": "757305", "name": "Agerbæk Bibliotek", "area": "Varde Bibliotek", "street": "Kærvej 2", "postcode": "6753", "city": "Agerbæk", "type": "Folkebibliotek", "geo": {"lat": 55.59942299999999, "lng": 8.80186}},
{"id": "757306", "name": "Ølgod Bibliotek", "area": "Varde Bibliotek", "street": "Vestergade 5", "postcode": "6870", "city": "Ølgod", "type": "Folkebibliotek", "geo": {"lat": 55.8081156, "lng": 8.617069299999999}},
{"id": "757500", "name": "Vejen Bibliotek", "area": "Vejen Kommunes Biblioteker", "street": "Rådhuspassagen 8", "postcode": "6600", "city": "Vejen", "type": "Folkebibliotek", "geo": {"lat": 55.4770455, "lng": 9.137352500000002}},
{"id": "757510", "name": "Brørup Bibliotek", "area": "Vejen Kommunes Biblioteker", "street": "Stadionvej 6 Postbox 105", "postcode": "6650", "city": "Brørup", "type": "Folkebibliotek", "geo": {"lat": 55.4828152, "lng": 9.018484299999999}},
{"id": "757520", "name": "Holsted Bibliotek", "area": "Vejen Kommunes Biblioteker", "street": "Højmarksvej 18", "postcode": "6670", "city": "Holsted", "type": "Folkebibliotek", "geo": {"lat": 55.499229, "lng": 8.913867999999999}},
{"id": "757530", "name": "Rødding Bibliotek", "area": "Vejen Kommunes Biblioteker", "street": "Søndergyden 15", "postcode": "6630", "city": "Rødding", "type": "Folkebibliotek", "geo": {"lat": 55.365629, "lng": 9.053920999999999}},
{"id": "757533", "name": "Vejen Bogbus", "area": "Vejen Kommunes Biblioteker", "street": "Rådhuspassagen 8 Postbox 223", "postcode": "6600", "city": "Vejen", "type": "Folkebibliotek", "geo": {"lat": 55.47922399999999, "lng": 9.137997}},
{"id": "758000", "name": "Aabenraa Bibliotek", "area": "Aabenraa Bibliotekerne", "street": "Haderslevvej 3", "postcode": "6200", "city": "Aabenraa", "type": "Folkebibliotek", "geo": {"lat": 55.049899, "lng": 9.420663}},
{"id": "758001", "name": "Bov Bibliotek", "area": "Aabenraa Bibliotekerne", "street": "Bovvej 4", "postcode": "6330", "city": "Padborg", "type": "Folkebibliotek", "geo": {"lat": 54.82788, "lng": 9.3643059}},
{"id": "758002", "name": "Rødekro Bibliotek", "area": "Aabenraa Bibliotekerne", "street": "Vestergade 20", "postcode": "6230", "city": "Rødekro", "type": "Folkebibliotek", "geo": {"lat": 55.072696, "lng": 9.330898}},
{"id": "758003", "name": "Tinglev Bibliotek", "area": "Aabenraa Bibliotekerne", "street": "Tinglev Midt", "postcode": "6360", "city": "Tinglev", "type": "Folkebibliotek", "geo": {"lat": 54.9357554, "lng": 9.2510123}},
{"id": "758004", "name": "Felsted Bibliotek", "area": "Aabenraa Bibliotekerne", "street": "Gråstenvej 12 Felsted", "postcode": "6200", "city": "Aabenraa", "type": "Folkebibliotek", "geo": {"lat": 54.97942399999999, "lng": 9.497398600000002}},
{"id": "760700", "name": "Fredericia Bibliotek", "area": "Fredericia Bibliotek", "street": "Prinsessegade 27", "postcode": "7000", "city": "Fredericia", "type": "Folkebibliotek", "geo": {"lat": 55.5668406, "lng": 9.757866199999999}},
{"id": "760706", "name": "Taulov Bibliotek", "area": "Fredericia Bibliotek", "street": "Højdedraget 2, Taulov", "postcode": "7000", "city": "Fredericia", "type": "Folkebibliotek", "geo": {"lat": 55.53897079999999, "lng": 9.609579499999999}},
{"id": "760710", "name": "Erritsø-hallen afhentningssted", "area": "Fredericia Bibliotek", "street": "Krogsagervej 42", "postcode": "7000", "city": "Fredericia", "type": "Folkebibliotek", "geo": {"lat": 55.5410924, "lng": 9.7106136}},
{"id": "761500", "name": "Horsens Bibliotek", "area": "Horsens Bibliotek", "street": "Tobaksgården 12 Postbox 521", "postcode": "8700", "city": "Horsens", "type": "Folkebibliotek", "geo": {"lat": 55.8581302, "lng": 9.8475881}},
{"id": "761501", "name": "Brædstrup Bibliotek", "area": "Horsens Bibliotek", "street": "Niels Wonges Vej 5", "postcode": "8740", "city": "Brædstrup", "type": "Folkebibliotek", "geo": {"lat": 55.9738175, "lng": 9.6097617}},
{"id": "761502", "name": "Endelave Bibliotek", "area": "Horsens Bibliotek", "street": "Kongevejen 30, Endelave", "postcode": "8700", "city": "Horsens", "type": "Folkebibliotek", "geo": {"lat": 55.758652, "lng": 10.276579}},
{"id": "761503", "name": "Hovedgård Bibliotek", "area": "Horsens Bibliotek", "street": "Stationsvej 4", "postcode": "8732", "city": "Hovedgård", "type": "Folkebibliotek", "geo": {"lat": 55.945973, "lng": 9.9620979}},
{"id": "761504", "name": "Gedved Bibliotek", "area": "Horsens Bibliotek", "street": "Kirkevej 16", "postcode": "8751", "city": "Gedved", "type": "Folkebibliotek", "geo": {"lat": 55.931337, "lng": 9.851996}},
{"id": "761505", "name": "Østbirk Bibliotek", "area": "Horsens Bibliotek", "street": "Peder Skrams Plads", "postcode": "8752", "city": "Østbirk", "type": "Folkebibliotek", "geo": {"lat": 55.9677728, "lng": 9.7499507}},
{"id": "761506", "name": "Søvind Bibliotek", "area": "Horsens Bibliotek", "street": "Ravnebjerget 12, Søvind", "postcode": "8700", "city": "Horsens", "type": "Folkebibliotek", "geo": {"lat": 55.8965641, "lng": 10.0015836}},
{"id": "762100", "name": "Kolding Bibliotek", "area": "Koldingbibliotekerne", "street": "Slotsmøllen Slotssøvejen 4", "postcode": "6000", "city": "Kolding", "type": "Folkebibliotek", "geo": {"lat": 55.49145300000001, "lng": 9.480069000000002}},
{"id": "762102", "name": "Lunderskov Bibliotek", "area": "Koldingbibliotekerne", "street": "Kobbelvænget 2", "postcode": "6640", "city": "Lunderskov", "type": "Folkebibliotek", "geo": {"lat": 55.480407, "lng": 9.292804}},
{"id": "762103", "name": "Christiansfeld Bibliotek", "area": "Koldingbibliotekerne", "street": "Gl. Kongevej 3", "postcode": "6070", "city": "Christiansfeld", "type": "Folkebibliotek", "geo": {"lat": 55.3547123, "lng": 9.485934499999999}},
{"id": "762104", "name": "Vamdrup Bibliotek", "area": "Koldingbibliotekerne", "street": "Jernbanegade 1", "postcode": "6580", "city": "Vamdrup", "type": "Folkebibliotek", "geo": {"lat": 55.426471, "lng": 9.283146}},
{"id": "762105", "name": "Vester Nebel Biblioteksautomat", "area": "Koldingbibliotekerne", "street": "Dagli'Brugsen Koldingvej 2", "postcode": "6040", "city": "Egtved", "type": "Folkebibliotek", "geo": {"lat": 55.5676728, "lng": 9.401143399999999}},
{"id": "762106", "name": "Alminde Biblioteksautomat", "area": "Koldingbibliotekerne", "street": "Sysselbjergvej 6", "postcode": "6051", "city": "Alminde", "type": "Folkebibliotek"},
{"id": "762107", "name": "Sdr.Bjert Biblioteksautomat", "area": "Koldingbibliotekerne", "street": "Vesterløkke 5", "postcode": "6091", "city": "Bjert", "type": "Folkebibliotek", "geo": {"lat": 55.4579813, "lng": 9.5575442}},
{"id": "762108", "name": "Jordrup Biblioteksautomat", "area": "Koldingbibliotekerne", "street": "Hovedgaden 43", "postcode": "6064", "city": "Jordrup", "type": "Folkebibliotek", "geo": {"lat": 55.55392500000001, "lng": 9.312341}},
{"id": "762109", "name": "Hejls Biblioteksautomat", "area": "Koldingbibliotekerne", "street": "Hejls Landevej 34", "postcode": "6094", "city": "Hejls", "type": "Folkebibliotek", "geo": {"lat": 55.382884, "lng": 9.578189}},
{"id": "763000", "name": "Vejle Bibliotek", "area": "Vejle Bibliotekerne", "street": "Willy Sørensens Plads 1", "postcode": "7100", "city": "Vejle", "type": "Folkebibliotek", "geo": {"lat": 55.70640599999999, "lng": 9.520033999999999}},
{"id": "763001", "name": "Give Bibliotek", "area": "Vejle Bibliotekerne", "street": "Vimmelskaftet 2", "postcode": "7323", "city": "Give", "type": "Folkebibliotek", "geo": {"lat": 55.8438412, "lng": 9.237014499999999}},
{"id": "763002", "name": "Jelling Bibliotek", "area": "Vejle Bibliotekerne", "street": "Møllegade 10", "postcode": "7300", "city": "Jelling", "type": "Folkebibliotek", "geo": {"lat": 55.754741, "lng": 9.418115}},
{"id": "763003", "name": "Egtved Bibliotek", "area": "Vejle Bibliotekerne", "street": "Tybovej 2", "postcode": "6040", "city": "Egtved", "type": "Folkebibliotek", "geo": {"lat": 55.6204166, "lng": 9.310344899999999}},
{"id": "763004", "name": "Børkop Bibliotek", "area": "Vejle Bibliotekerne", "street": "Ågade 6", "postcode": "7080", "city": "Børkop", "type": "Folkebibliotek", "geo": {"lat": 55.6437287, "lng": 9.6541861}},
{"id": "763005", "name": "Biblioteksbussen", "area": "Vejle Bibliotekerne", "street": "Willy Sørensens Plads 1", "postcode": "7100", "city": "Vejle", "type": "Folkebibliotek", "geo": {"lat": 55.70640599999999, "lng": 9.520033999999999}},
{"id": "765700", "name": "Biblioteket i Herning", "area": "Herning Bibliotekerne", "street": "Østergade 8", "postcode": "7400", "city": "Herning", "type": "Folkebibliotek", "geo": {"lat": 56.136, "lng": 8.977069}},
{"id": "765703", "name": "Biblioteket i Hammerum", "area": "Herning Bibliotekerne", "street": "Højgade 2C, Hammerum", "postcode": "7400", "city": "Herning", "type": "Folkebibliotek", "geo": {"lat": 56.134189, "lng": 9.062908}},
{"id": "765704", "name": "Biblioteket i Sunds", "area": "Herning Bibliotekerne", "street": "Sunds Hovedgade 50-52", "postcode": "7451", "city": "Sunds", "type": "Folkebibliotek", "geo": {"lat": 56.2041173, "lng": 9.016568699999999}},
{"id": "765705", "name": "Biblioteket i Vildbjerg", "area": "Herning Bibliotekerne", "street": "Kirkegade 7", "postcode": "7480", "city": "Vildbjerg", "type": "Folkebibliotek", "geo": {"lat": 56.1980564, "lng": 8.7662709}},
{"id": "765707", "name": "Biblioteket i Aulum", "area": "Herning Bibliotekerne", "street": "Markedspladsen 1", "postcode": "7490", "city": "Aulum", "type": "Folkebibliotek", "geo": {"lat": 56.265547, "lng": 8.797607}},
{"id": "765708", "name": "Biblioteket i Kibæk", "area": "Herning Bibliotekerne", "street": "Solbakken 30", "postcode": "6933", "city": "Kibæk", "type": "Folkebibliotek", "geo": {"lat": 56.02769199999999, "lng": 8.852654}},
{"id": "765711", "name": "Arnborg afhentningssted", "area": "Herning Bibliotekerne", "street": "Greenvej 1", "postcode": "7400", "city": "Herning", "type": "Folkebibliotek", "geo": {"lat": 56.014285, "lng": 8.993613999999999}},
{"id": "765712", "name": "Fasterholt afhentningssted", "area": "Herning Bibliotekerne", "street": "Arnborgvej 11", "postcode": "7330", "city": "Brande", "type": "Folkebibliotek", "geo": {"lat": 56.007655, "lng": 9.109268100000001}},
{"id": "765713", "name": "Feldborg afhentningssted", "area": "Herning Bibliotekerne", "street": "Langgade 62", "postcode": "7540", "city": "Haderup", "type": "Folkebibliotek", "geo": {"lat": 56.34150899999999, "lng": 8.940693}},
{"id": "765714", "name": "Haderup afhentningssted", "area": "Herning Bibliotekerne", "street": "Nygade 9", "postcode": "7540", "city": "Haderup", "type": "Folkebibliotek", "geo": {"lat": 56.3891871, "lng": 8.9959455}},
{"id": "765715", "name": "Haunstrup afhentningssted", "area": "Herning Bibliotekerne", "street": "Haunstrup Hovedgade 46", "postcode": "7400", "city": "Herning", "type": "Folkebibliotek", "geo": {"lat": 56.1202565, "lng": 8.8058854}},
{"id": "765716", "name": "Hodsager afhentningssted", "area": "Herning Bibliotekerne", "street": "Hovedgaden 31", "postcode": "7490", "city": "Aulum", "type": "Folkebibliotek", "geo": {"lat": 56.3141243, "lng": 8.8560646}},
{"id": "765717", "name": "Herning Gymnasium afhentningssted", "area": "Herning Bibliotekerne", "street": "H. P. Hansens Vej 8", "postcode": "7400", "city": "Herning", "type": "Folkebibliotek", "geo": {"lat": 56.146791, "lng": 8.978302}},
{"id": "765718", "name": "Ilskov afhentningssted", "area": "Herning Bibliotekerne", "street": "Birkeskovvej 6", "postcode": "7451", "city": "Sunds", "type": "Folkebibliotek", "geo": {"lat": 56.2382741, "lng": 9.0896467}},
{"id": "765719", "name": "Karstoft afhentningssted", "area": "Herning Bibliotekerne", "street": "Blåhøjvej 60", "postcode": "6933", "city": "Kibæk", "type": "Folkebibliotek", "geo": {"lat": 55.9338632, "lng": 8.940893599999999}},
{"id": "765720", "name": "Kølkær afhentningssted", "area": "Herning Bibliotekerne", "street": "Søbysøvej 7A", "postcode": "7400", "city": "Herning", "type": "Folkebibliotek", "geo": {"lat": 56.062091, "lng": 9.084503}},
{"id": "765721", "name": "Simmelkær afhentningssted", "area": "Herning Bibliotekerne", "street": "Hodsagervej 33A", "postcode": "7451", "city": "Sunds", "type": "Folkebibliotek", "geo": {"lat": 56.2704373, "lng": 8.995042999999999}},
{"id": "765722", "name": "Sinding afhentningssted", "area": "Herning Bibliotekerne", "street": "Skoletoften 7", "postcode": "7400", "city": "Herning", "type": "Folkebibliotek", "geo": {"lat": 56.21292, "lng": 8.851267}},
{"id": "765723", "name": "Skarrild afhentningssted", "area": "Herning Bibliotekerne", "street": "Hovedgaden 47", "postcode": "6933", "city": "Kibæk", "type": "Folkebibliotek", "geo": {"lat": 55.9778872, "lng": 8.8979109}},
{"id": "765724", "name": "Sdr. Felding afhentningssted", "area": "Herning Bibliotekerne", "street": "Bredgade 25", "postcode": "7280", "city": "Sdr. Felding", "type": "Folkebibliotek", "geo": {"lat": 55.941253, "lng": 8.78326}},
{"id": "765725", "name": "Stakroge afhentningssted", "area": "Herning Bibliotekerne", "street": "Borgergade 28", "postcode": "7270", "city": "Stakroge", "type": "Folkebibliotek", "geo": {"lat": 55.890531, "lng": 8.847593999999999}},
{"id": "765726", "name": "Sørvad afhentningssted", "area": "Herning Bibliotekerne", "street": "Langgade 30", "postcode": "7550", "city": "Sørvad", "type": "Folkebibliotek", "geo": {"lat": 56.262466, "lng": 8.652268}},
{"id": "765727", "name": "Ørnhøj afhentningssted", "area": "Herning Bibliotekerne", "street": "Hovedgaden 54", "postcode": "6973", "city": "Ørnhøj", "type": "Folkebibliotek", "geo": {"lat": 56.1998468, "lng": 8.5650776}},
{"id": "765728", "name": "Skibbild  afhentningssted", "area": "Herning Bibliotekerne", "street": "Skjoldsvej 1", "postcode": "7480", "city": "Vildbjerg", "type": "Folkebibliotek", "geo": {"lat": 56.1694596, "lng": 8.8469003}},
{"id": "765729", "name": "Vind LandsbyCenter afhentningssted", "area": "Herning Bibliotekerne", "street": "Holstebrovej 20", "postcode": "7500", "city": "Holstebro", "type": "Folkebibliotek", "geo": {"lat": 56.2596186, "lng": 8.5663623}},
{"id": "766100", "name": "Holstebro Bibliotek", "area": "Holstebro Bibliotek", "street": "Kirkestræde 11", "postcode": "7500", "city": "Holstebro", "type": "Folkebibliotek", "geo": {"lat": 56.3603032, "lng": 8.616228999999999}},
{"id": "766102", "name": "Ulfborg Bibliotek", "area": "Holstebro Bibliotek", "street": "Bredgade 3", "postcode": "6990", "city": "Ulfborg", "type": "Folkebibliotek", "geo": {"lat": 56.27241600000001, "lng": 8.321565999999999}},
{"id": "766103", "name": "Vinderup Bibliotek", "area": "Holstebro Bibliotek", "street": "Grønningen 1", "postcode": "7830", "city": "Vinderup", "type": "Folkebibliotek", "geo": {"lat": 56.4768319, "lng": 8.7829889}},
{"id": "766500", "name": "Lemvig Bibliotek", "area": "Lemvig Bibliotek", "street": "Skolegade 3", "postcode": "7620", "city": "Lemvig", "type": "Folkebibliotek", "geo": {"lat": 56.5493317, "lng": 8.3097157}},
{"id": "766501", "name": "Bogbussen", "area": "Lemvig Bibliotek", "street": "Skolegade 3", "postcode": "7620", "city": "Lemvig", "type": "Folkebibliotek", "geo": {"lat": 56.5493317, "lng": 8.3097157}},
{"id": "767100", "name": "Struer", "area": "Struer Bibliotek", "street": "Smedegade 1 Postbox 514", "postcode": "7600", "city": "Struer", "type": "Folkebibliotek", "geo": {"lat": 56.48493, "lng": 8.589933}},
{"id": "767101", "name": "Bogbussen", "area": "Struer Bibliotek", "street": "Smedegade 1 Postbox 514", "postcode": "7600", "city": "Struer", "type": "Folkebibliotek", "geo": {"lat": 56.48493, "lng": 8.589933}},
{"id": "767103", "name": "Thyholm Bibliotek", "area": "Struer Bibliotek", "street": "Rughavevej 5", "postcode": "7790", "city": "Thyholm", "type": "Folkebibliotek", "geo": {"lat": 56.650866, "lng": 8.533999}},
{"id": "770600", "name": "Ebeltoft Bibliotek", "area": "Syddjurs Bibliotek", "street": "Vestervej 17", "postcode": "8400", "city": "Ebeltoft", "type": "Folkebibliotek", "geo": {"lat": 56.193381, "lng": 10.669748}},
{"id": "770601", "name": "Hornslet Bibliotek", "area": "Syddjurs Bibliotek", "street": "Tingvej 35", "postcode": "8543", "city": "Hornslet", "type": "Folkebibliotek", "geo": {"lat": 56.318495, "lng": 10.3153279}},
{"id": "770602", "name": "Kolind Bibliotek", "area": "Syddjurs Bibliotek", "street": "Bugtrupvej 31", "postcode": "8560", "city": "Kolind", "type": "Folkebibliotek", "geo": {"lat": 56.360955, "lng": 10.577498}},
{"id": "770603", "name": "Rønde Bibliotek", "area": "Syddjurs Bibliotek", "street": "Skolevej 12-14", "postcode": "8410", "city": "Rønde", "type": "Folkebibliotek", "geo": {"lat": 56.302892, "lng": 10.474459}},
{"id": "770604", "name": "Ebeltoft Bogbus", "area": "Syddjurs Bibliotek", "street": "Lundbergsvej 2 Postbox 183", "postcode": "8400", "city": "Ebeltoft", "type": "Folkebibliotek", "geo": {"lat": 56.196327, "lng": 10.677857}},
{"id": "770700", "name": "Grenaa Bibliotek", "area": "Norddjurs Biblioteker", "street": "N. P. Josiassensvej 17", "postcode": "8500", "city": "Grenaa", "type": "Folkebibliotek", "geo": {"lat": 56.410611, "lng": 10.88689}},
{"id": "770701", "name": "Ørum Bibliotek", "area": "Norddjurs Biblioteker", "street": "Skolebakken 43", "postcode": "8586", "city": "Ørum Djurs", "type": "Folkebibliotek", "geo": {"lat": 56.4403588, "lng": 10.6874979}},
{"id": "771000", "name": "Hinnerup Bibliotek", "area": "Favrskov Bibliotekerne", "street": "Skovvej 18 Postbox 70", "postcode": "8382", "city": "Hinnerup", "type": "Folkebibliotek", "geo": {"lat": 56.2650022, "lng": 10.0633759}},
{"id": "771001", "name": "Hammel Bibliotek", "area": "Favrskov Bibliotekerne", "street": "Dalvej 1", "postcode": "8450", "city": "Hammel", "type": "Folkebibliotek", "geo": {"lat": 56.256876, "lng": 9.860021999999999}},
{"id": "771002", "name": "Hadsten Bibliotek", "area": "Favrskov Bibliotekerne", "street": "Evald Tangs Allé 45", "postcode": "8370", "city": "Hadsten", "type": "Folkebibliotek", "geo": {"lat": 56.325725, "lng": 10.044932}},
{"id": "771003", "name": "Ulstrup Bibliotek", "area": "Favrskov Bibliotekerne", "street": "Hovedgaden 60", "postcode": "8860", "city": "Ulstrup", "type": "Folkebibliotek", "geo": {"lat": 56.387301, "lng": 9.78821}},
{"id": "772700", "name": "Odder Bibliotek", "area": "Odder Bibliotek", "street": "Mejerivej 14", "postcode": "8300", "city": "Odder", "type": "Folkebibliotek", "geo": {"lat": 55.973865, "lng": 10.152563}},
{"id": "773000", "name": "Randers Bibliotek", "area": "Randers Bibliotek", "street": "Stemannsgade 2 Postbox 917", "postcode": "8900", "city": "Randers C", "type": "Folkebibliotek", "geo": {"lat": 56.4635786, "lng": 10.0344155}},
{"id": "773001", "name": "Randers Bibliotek Øst", "area": "Randers Bibliotek", "street": "Udbyhøjvej 81", "postcode": "8930", "city": "Randers NØ", "type": "Folkebibliotek", "geo": {"lat": 56.47181399999999, "lng": 10.06571}},
{"id": "773002", "name": "Randers Bibliotek Syd", "area": "Randers Bibliotek", "street": "Kristrupvej 68", "postcode": "8960", "city": "Randers SØ", "type": "Folkebibliotek", "geo": {"lat": 56.446897, "lng": 10.056528}},
{"id": "773004", "name": "Bogbus", "area": "Randers Bibliotek", "street": "Stemannsgade 2 Postbox 917", "postcode": "8900", "city": "Randers C", "type": "Folkebibliotek", "geo": {"lat": 56.4635786, "lng": 10.0344155}},
{"id": "773005", "name": "Langå Bibliotek", "area": "Randers Bibliotek", "street": "Bredgade 4", "postcode": "8870", "city": "Langå", "type": "Folkebibliotek", "geo": {"lat": 56.39174, "lng": 9.894079999999999}},
{"id": "774000", "name": "Silkeborg Bibliotek", "area": "Silkeborg Bibliotekerne", "street": "Hostrupsgade 41 A Postbox 302", "postcode": "8600", "city": "Silkeborg", "type": "Folkebibliotek", "geo": {"lat": 56.176362, "lng": 9.5549216}},
{"id": "774001", "name": "Kjellerup Bibliotek", "area": "Silkeborg Bibliotekerne", "street": "Tinghusvej 16", "postcode": "8620", "city": "Kjellerup", "type": "Folkebibliotek", "geo": {"lat": 56.287432, "lng": 9.428659999999999}},
{"id": "774003", "name": "Them Bibliotek", "area": "Silkeborg Bibliotekerne", "street": "Silkeborgvej 33", "postcode": "8653", "city": "Them", "type": "Folkebibliotek", "geo": {"lat": 56.09244709999999, "lng": 9.5481803}},
{"id": "774004", "name": "Gjern Bibliotek", "area": "Silkeborg Bibliotekerne", "street": "Skovvejen 6", "postcode": "8883", "city": "Gjern", "type": "Folkebibliotek", "geo": {"lat": 56.224488, "lng": 9.743094}},
{"id": "774021", "name": "Sorringhus", "area": "Silkeborg Bibliotekerne", "street": "Hovedgaden 54 N", "postcode": "8641", "city": "Sorring", "type": "Folkebibliotek", "geo": {"lat": 56.1758831, "lng": 9.781523499999999}},
{"id": "774022", "name": "Vrads Købmandshandel", "area": "Silkeborg Bibliotekerne", "street": "St. Bredlundvej 6", "postcode": "8654", "city": "Bryrup", "type": "Folkebibliotek", "geo": {"lat": 56.041027, "lng": 9.450739}},
{"id": "774023", "name": "Sinding Bibliotekscafé. Sinding Forsamlingshus", "area": "Silkeborg Bibliotekerne", "street": "Sinding Hovvej 39A", "postcode": "8600", "city": "Silkeborg", "type": "Folkebibliotek", "geo": {"lat": 56.2082433, "lng": 9.466187399999999}},
{"id": "774024", "name": "Thorning Skole", "area": "Silkeborg Bibliotekerne", "street": "Møllevej 7", "postcode": "8620", "city": "Kjellerup", "type": "Folkebibliotek", "geo": {"lat": 56.28481799999999, "lng": 9.331809999999999}},
{"id": "774025", "name": "Ans Skole", "area": "Silkeborg Bibliotekerne", "street": "Teglgade 20", "postcode": "8643", "city": "Ans", "type": "Folkebibliotek", "geo": {"lat": 56.3072084, "lng": 9.5874779}},
{"id": "774026", "name": "Bryrup Brugs", "area": "Silkeborg Bibliotekerne", "street": "Hovedgaden 13", "postcode": "8654", "city": "Bryrup", "type": "Folkebibliotek", "geo": {"lat": 56.0244881, "lng": 9.511337}},
{"id": "774027", "name": "Lemming IF Klublokaler", "area": "Silkeborg Bibliotekerne", "street": "Lemming Skolevej 10B", "postcode": "8632", "city": "Lemming", "type": "Folkebibliotek", "geo": {"lat": 56.23255, "lng": 9.554207900000002}},
{"id": "774028", "name": "Kragelund  Lokalbrugs", "area": "Silkeborg Bibliotekerne", "street": "Engesvangvej 9", "postcode": "8600", "city": "Silkeborg", "type": "Folkebibliotek", "geo": {"lat": 56.194684, "lng": 9.4091817}},
{"id": "774100", "name": "Samsø Bibliotek", "area": "Samsø Bibliotek", "street": "Marsk Stigsvej 5 A", "postcode": "8305", "city": "Samsø", "type": "Folkebibliotek", "geo": {"lat": 55.8334831, "lng": 10.5848498}},
{"id": "774600", "name": "Skanderborg Bibliotek", "area": "Skanderborg Bibliotek", "street": "Parkvej 10", "postcode": "8660", "city": "Skanderborg", "type": "Folkebibliotek", "geo": {"lat": 56.0352416, "lng": 9.9322404}},
{"id": "774601", "name": "Ry Bibliotek", "area": "Skanderborg Bibliotek", "street": "Gudrunsvej 1", "postcode": "8680", "city": "Ry", "type": "Folkebibliotek", "geo": {"lat": 56.09085229999999, "lng": 9.7642965}},
{"id": "774602", "name": "Hørning Bibliotek", "area": "Skanderborg Bibliotek", "street": "Rådhuspladsen 1", "postcode": "8362", "city": "Hørning", "type": "Folkebibliotek", "geo": {"lat": 56.085108, "lng": 10.035757}},
{"id": "774603", "name": "Galten Bibliotek", "area": "Skanderborg Bibliotek", "street": "Torvet 7", "postcode": "8464", "city": "Galten", "type": "Folkebibliotek", "geo": {"lat": 56.155456, "lng": 9.904940999999999}},
{"id": "774604", "name": "Gl. Rye Afhentningsted", "area": "Skanderborg Bibliotek", "street": "Nyvej 1", "postcode": "8680", "city": "Ry", "type": "Folkebibliotek", "geo": {"lat": 56.076919, "lng": 9.699338299999999}},
{"id": "775100", "name": "Aarhus Kommunes Biblioteker, Hovedbiblioteket", "area": "Aarhus Kommunes Biblioteker. Hovedbiblioteket.", "street": "Hack Kampmanns Plads 2", "postcode": "8000", "city": "Aarhus C", "type": "Folkebibliotek", "geo": {"lat": 56.165278, "lng": 10.227222}},
{"id": "775120", "name": "Højbjerg Bibliotek", "area": "Aarhus Kommunes Biblioteker. Hovedbiblioteket.", "street": "Oddervej 74", "postcode": "8270", "city": "Højbjerg", "type": "Folkebibliotek", "geo": {"lat": 56.1142695, "lng": 10.2074291}},
{"id": "775122", "name": "Beder-Malling Bibliotek", "area": "Aarhus Kommunes Biblioteker. Hovedbiblioteket.", "street": "Kirkebakken 41", "postcode": "8330", "city": "Beder", "type": "Folkebibliotek", "geo": {"lat": 56.06038299999999, "lng": 10.215753}},
{"id": "775126", "name": "Solbjerg Bibliotek", "area": "Aarhus Kommunes Biblioteker. Hovedbiblioteket.", "street": "Kærgårdsvej 4", "postcode": "8355", "city": "Solbjerg", "type": "Folkebibliotek", "geo": {"lat": 56.042156, "lng": 10.0840789}},
{"id": "775127", "name": "Tranbjerg Bibliotek", "area": "Aarhus Kommunes Biblioteker. Hovedbiblioteket.", "street": "Kirketorvet 6", "postcode": "8310", "city": "Tranbjerg", "type": "Folkebibliotek", "geo": {"lat": 56.091095, "lng": 10.135585}},
{"id": "775130", "name": "Viby Bibliotek", "area": "Aarhus Kommunes Biblioteker. Hovedbiblioteket.", "street": "Skanderborgvej 170", "postcode": "8260", "city": "Viby J.", "type": "Folkebibliotek", "geo": {"lat": 56.130558, "lng": 10.164646}},
{"id": "775133", "name": "Kolt-Hasselager Kombi Bibliotek", "area": "Aarhus Kommunes Biblioteker. Hovedbiblioteket.", "street": "Kolt Østervej 45", "postcode": "8361", "city": "Hasselager", "type": "Folkebibliotek", "geo": {"lat": 56.10992419999999, "lng": 10.0760538}},
{"id": "775140", "name": "Åby Bibliotek", "area": "Aarhus Kommunes Biblioteker. Hovedbiblioteket.", "street": "Ludvig Feilbergsvej 7", "postcode": "8230", "city": "Åbyhøj", "type": "Folkebibliotek", "geo": {"lat": 56.156438, "lng": 10.162515}},
{"id": "775144", "name": "Gellerup Bibliotek", "area": "Aarhus Kommunes Biblioteker. Hovedbiblioteket.", "street": "Gudrunsvej 78", "postcode": "8220", "city": "Brabrand", "type": "Folkebibliotek", "geo": {"lat": 56.15566699999999, "lng": 10.135267}},
{"id": "775146", "name": "Harlev Bibliotek", "area": "Aarhus Kommunes Biblioteker. Hovedbiblioteket.", "street": "Gammel Stillingvej 424, Næshøjskolen,", "postcode": "8462", "city": "Harlev", "type": "Folkebibliotek", "geo": {"lat": 56.139929, "lng": 10.0032866}},
{"id": "775147", "name": "Hasle Bibliotek", "area": "Aarhus Kommunes Biblioteker. Hovedbiblioteket.", "street": "Kappelvænget 2 B", "postcode": "8210", "city": "Aarhus V.", "type": "Folkebibliotek", "geo": {"lat": 56.1792779, "lng": 10.166976}},
{"id": "775149", "name": "Sabro Bibliotek", "area": "Aarhus Kommunes Biblioteker. Hovedbiblioteket.", "street": "Sabro Skolevej 4, Sabro-Korsvejskolen", "postcode": "8471", "city": "Sabro", "type": "Folkebibliotek", "geo": {"lat": 56.21178399999999, "lng": 10.023611}},
{"id": "775150", "name": "Tilst Bibliotek", "area": "Aarhus Kommunes Biblioteker. Hovedbiblioteket.", "street": "Tilst Skolevej 13a", "postcode": "8381", "city": "Tilst", "type": "Folkebibliotek", "geo": {"lat": 56.18835499999999, "lng": 10.110579}},
{"id": "775160", "name": "Risskov Bibliotek", "area": "Aarhus Kommunes Biblioteker. Hovedbiblioteket.", "street": "Fortebakken 1", "postcode": "8240", "city": "Risskov", "type": "Folkebibliotek", "geo": {"lat": 56.1937133, "lng": 10.2234383}},
{"id": "775162", "name": "Hjortshøj Kombi Bibliotek", "area": "Aarhus Kommunes Biblioteker. Hovedbiblioteket.", "street": "Virupvej 75, Virupskolen", "postcode": "8530", "city": "Hjortshøj", "type": "Folkebibliotek", "geo": {"lat": 56.30929219999999, "lng": 10.2085902}},
{"id": "775164", "name": "Egå Kombi Bibliotek", "area": "Aarhus Kommunes Biblioteker. Hovedbiblioteket.", "street": "Egå Havvej 5, Sølystskolen", "postcode": "8250", "city": "Egå", "type": "Folkebibliotek", "geo": {"lat": 56.21171700000001, "lng": 10.283211}},
{"id": "775167", "name": "Lystrup Bibliotek", "area": "Aarhus Kommunes Biblioteker. Hovedbiblioteket.", "street": "Bystævnet 4 B", "postcode": "8520", "city": "Lystrup", "type": "Folkebibliotek", "geo": {"lat": 56.23416599999999, "lng": 10.2283329}},
{"id": "775168", "name": "Skødstrup Kombi-bibliotek", "area": "Aarhus Kommunes Biblioteker. Hovedbiblioteket.", "street": "Rosenbakken 4, Skødstrup Skole", "postcode": "8541", "city": "Skødstrup", "type": "Folkebibliotek", "geo": {"lat": 56.27160199999999, "lng": 10.308421}},
{"id": "775170", "name": "Trige Bibliotek", "area": "Aarhus Kommunes Biblioteker. Hovedbiblioteket.", "street": "Smedebroen 21", "postcode": "8380", "city": "Trige", "type": "Folkebibliotek", "geo": {"lat": 56.253203, "lng": 10.147788}},
{"id": "775600", "name": "Ikast Bibliotek", "area": "Ikast-Brande Bibliotek", "street": "Grønnegade 25", "postcode": "7430", "city": "Ikast", "type": "Folkebibliotek", "geo": {"lat": 56.141837, "lng": 9.152847}},
{"id": "775601", "name": "Brande Bibliotek", "area": "Ikast-Brande Bibliotek", "street": "Centerparken 2", "postcode": "7330", "city": "Brande", "type": "Folkebibliotek", "geo": {"lat": 55.940895, "lng": 9.125928}},
{"id": "776000", "name": "Ringkøbing Bibliotek", "area": "Ringkøbing-Skjern Bibliotekerne", "street": "Ved Fjorden 6", "postcode": "6950", "city": "Ringkøbing", "type": "Folkebibliotek", "geo": {"lat": 56.086535, "lng": 8.242397}},
{"id": "776001", "name": "Skjern Bibliotek", "area": "Ringkøbing-Skjern Bibliotekerne", "street": "Engtoften 1", "postcode": "6900", "city": "Skjern", "type": "Folkebibliotek", "geo": {"lat": 55.9479462, "lng": 8.4964523}},
{"id": "776002", "name": "Tarm Bibliotek", "area": "Ringkøbing-Skjern Bibliotekerne", "street": "Engvej 2", "postcode": "6880", "city": "Tarm", "type": "Folkebibliotek", "geo": {"lat": 55.90772699999999, "lng": 8.516475999999999}},
{"id": "776003", "name": "Videbæk Bibliotek", "area": "Ringkøbing-Skjern Bibliotekerne", "street": "Fischersvej 6", "postcode": "6920", "city": "Videbæk", "type": "Folkebibliotek", "geo": {"lat": 56.090198, "lng": 8.629023}},
{"id": "776004", "name": "Hvide Sande Bibliotek", "area": "Ringkøbing-Skjern Bibliotekerne", "street": "Skolevej 1", "postcode": "6960", "city": "Hvide Sande", "type": "Folkebibliotek", "geo": {"lat": 56.007465, "lng": 8.129275999999999}},
{"id": "776600", "name": "Hedensted Bibliotek", "area": "Hedensted Bibliotekerne", "street": "Østerbrogade 26", "postcode": "8722", "city": "Hedensted", "type": "Folkebibliotek", "geo": {"lat": 55.77085, "lng": 9.7024268}},
{"id": "776601", "name": "Tørring Bibliotek", "area": "Hedensted Bibliotekerne", "street": "Gudenåcentret Kirkevej 10, 1", "postcode": "7160", "city": "Tørring", "type": "Folkebibliotek", "geo": {"lat": 55.860647, "lng": 9.482918000000002}},
{"id": "776602", "name": "Uldum Bibliotek", "area": "Hedensted Bibliotekerne", "street": "Bakken 2", "postcode": "7171", "city": "Uldum", "type": "Folkebibliotek", "geo": {"lat": 55.84529999999999, "lng": 9.588212}},
{"id": "776603", "name": "Hornsyld Bibliotek", "area": "Hedensted Bibliotekerne", "street": "Nørremarksvej 1 B", "postcode": "8783", "city": "Hornsyld", "type": "Folkebibliotek", "geo": {"lat": 55.757478, "lng": 9.8456703}},
{"id": "776604", "name": "Juelsminde Bibliotek", "area": "Hedensted Bibliotekerne", "street": "Wedelsgade 1", "postcode": "7130", "city": "Juelsminde", "type": "Folkebibliotek", "geo": {"lat": 55.7133651, "lng": 10.0127488}},
{"id": "777300", "name": "Morsø Folkebibliotek", "area": "Morsø Folkebibliotek", "street": "Holgersgade 7", "postcode": "7900", "city": "Nykøbing Mors", "type": "Folkebibliotek", "geo": {"lat": 56.7968238, "lng": 8.861108699999999}},
{"id": "777900", "name": "Skive Bibliotek", "area": "Skive Bibliotek", "street": "Østergade 25", "postcode": "7800", "city": "Skive", "type": "Folkebibliotek", "geo": {"lat": 56.56719500000001, "lng": 9.028751999999999}},
{"id": "777901", "name": "Bogbusserne", "area": "Skive Bibliotek", "street": "Skive Bibliotek Østergade 25", "postcode": "7800", "city": "Skive", "type": "Folkebibliotek", "geo": {"lat": 56.5667255, "lng": 9.0294515}},
{"id": "778700", "name": "Thisted Bibliotek", "area": "Thisted Bibliotek", "street": "Tingstrupvej 19", "postcode": "7700", "city": "Thisted", "type": "Folkebibliotek", "geo": {"lat": 56.956368, "lng": 8.685837}},
{"id": "778701", "name": "Bogbussen", "area": "Thisted Bibliotek", "street": "Tingstrupvej 13-19", "postcode": "7700", "city": "Thisted", "type": "Folkebibliotek", "geo": {"lat": 56.955966, "lng": 8.686613}},
{"id": "778710", "name": "Hanstholm Bibliotek", "area": "Thisted Bibliotek", "street": "Bytorvet 2 Box 109", "postcode": "7730", "city": "Hanstholm", "type": "Folkebibliotek", "geo": {"lat": 57.112861, "lng": 8.617668000000002}},
{"id": "778720", "name": "Hurup Bibliotek", "area": "Thisted Bibliotek", "street": "Søndergade 1", "postcode": "7760", "city": "Hurup Thy", "type": "Folkebibliotek", "geo": {"lat": 56.74862599999999, "lng": 8.421566}},
{"id": "779100", "name": "Viborg Bibliotekerne, Hovedbiblioteket", "area": "Viborg Bibliotekerne", "street": "Vesterbrogade 15", "postcode": "8800", "city": "Viborg", "type": "Folkebibliotek", "geo": {"lat": 56.449818, "lng": 9.398641}},
{"id": "779102", "name": "Houlkær Bibliotek", "area": "Viborg Bibliotekerne", "street": "Odshøjvej 5C", "postcode": "8800", "city": "Viborg", "type": "Folkebibliotek", "geo": {"lat": 56.46272, "lng": 9.448549}},
{"id": "779105", "name": "Møldrup Bibliotek", "area": "Viborg Bibliotekerne", "street": "Skolegade 27", "postcode": "9632", "city": "Møldrup", "type": "Folkebibliotek", "geo": {"lat": 56.6184574, "lng": 9.5005356}},
{"id": "779109", "name": "Skals Bibliotek", "area": "Viborg Bibliotekerne", "street": "Ejstrupvej 18B", "postcode": "8832", "city": "Skals", "type": "Folkebibliotek", "geo": {"lat": 56.557891, "lng": 9.406609}},
{"id": "779110", "name": "Ørum Bibliotek", "area": "Viborg Bibliotekerne", "street": "Gl. Tjelevej 10 Ørum", "postcode": "8830", "city": "Tjele", "type": "Folkebibliotek", "geo": {"lat": 56.48388000000001, "lng": 9.624895}},
{"id": "779115", "name": "Bjerringbro Bibliotek", "area": "Viborg Bibliotekerne", "street": "Realskolevej 12", "postcode": "8850", "city": "Bjerringbro", "type": "Folkebibliotek", "geo": {"lat": 56.376865, "lng": 9.656367999999999}},
{"id": "779116", "name": "Rødkærsbro Bibliotek", "area": "Viborg Bibliotekerne", "street": "Brandstrupvej 23", "postcode": "8840", "city": "Rødkærsbro", "type": "Folkebibliotek", "geo": {"lat": 56.35543, "lng": 9.504139}},
{"id": "779117", "name": "Stoholm Bibliotek", "area": "Viborg Bibliotekerne", "street": "Iglsøvej 5", "postcode": "7850", "city": "Stoholm", "type": "Folkebibliotek", "geo": {"lat": 56.484337, "lng": 9.14227}},
{"id": "779122", "name": "Karup Bibliotek", "area": "Viborg Bibliotekerne", "street": "Ved Banen 5", "postcode": "7470", "city": "Karup", "type": "Folkebibliotek", "geo": {"lat": 56.3072144, "lng": 9.1679897}},
{"id": "779123", "name": "Frederiks Bibliotek", "area": "Viborg Bibliotekerne", "street": "Trehusevej 2 B, Frederiks", "postcode": "7470", "city": "Karup", "type": "Folkebibliotek", "geo": {"lat": 56.3451162, "lng": 9.251028}},
{"id": "779131", "name": "Servicepunkt Hammershøj", "area": "Viborg Bibliotekerne", "street": "", "postcode": "", "city": "", "type": "Folkebibliotek"},
{"id": "779132", "name": "Servicepunkt Ulbjerg", "area": "Viborg Bibliotekerne", "street": "", "postcode": "", "city": "", "type": "Folkebibliotek"},
{"id": "779134", "name": "Servicepunkt Paraplegiafdelingen, Viborg", "area": "Viborg Bibliotekerne", "street": "", "postcode": "", "city": "", "type": "Folkebibliotek"},
{"id": "781000", "name": "Brønderslev Bibliotek", "area": "Brønderslev Bibliotek", "street": "P.N. Jensens Plads 5", "postcode": "9700", "city": "Brønderslev", "type": "Folkebibliotek", "geo": {"lat": 57.2683528, "lng": 9.9506411}},
{"id": "781001", "name": "Bogbussen", "area": "Brønderslev Bibliotek", "street": "P.N. Jensens Plads 5", "postcode": "9700", "city": "Brønderslev", "type": "Folkebibliotek", "geo": {"lat": 57.2683528, "lng": 9.9506411}},
{"id": "781006", "name": "Dronninglund bibliotek", "area": "Brønderslev Bibliotek", "street": "Slotsgade 47", "postcode": "9330", "city": "Dronninglund", "type": "Folkebibliotek", "geo": {"lat": 57.1595874, "lng": 10.2913026}},
{"id": "781008", "name": "Hjallerup bibliotek", "area": "Brønderslev Bibliotek", "street": "Nørre Allé 3", "postcode": "9320", "city": "Hjallerup", "type": "Folkebibliotek", "geo": {"lat": 57.169539, "lng": 10.146004}},
{"id": "781300", "name": "Frederikshavn Bibliotek", "area": "Frederikshavn Kommunes Biblioteker", "street": "Parallelvej 16 Postbox 721", "postcode": "9900", "city": "Frederikshavn", "type": "Folkebibliotek", "geo": {"lat": 57.442711, "lng": 10.521006}},
{"id": "781302", "name": "Sæby Bibliotek", "area": "Frederikshavn Kommunes Biblioteker", "street": "Rådhuspladsen 1 Postbox 141", "postcode": "9300", "city": "Sæby", "type": "Folkebibliotek", "geo": {"lat": 57.33086979999999, "lng": 10.5166278}},
{"id": "781303", "name": "Østervrå Bibliotek", "area": "Frederikshavn Kommunes Biblioteker", "street": "Vrængmosevej 2", "postcode": "9750", "city": "Østervrå", "type": "Folkebibliotek", "geo": {"lat": 57.34223499999999, "lng": 10.235304}},
{"id": "781304", "name": "Ålbæk Bibliotek", "area": "Frederikshavn Kommunes Biblioteker", "street": "Gaardbovej 6", "postcode": "9982", "city": "Ålbæk", "type": "Folkebibliotek", "geo": {"lat": 57.59336249999999, "lng": 10.4070461}},
{"id": "781305", "name": "Skagen Bibliotek", "area": "Frederikshavn Kommunes Biblioteker", "street": "Skolevej 5", "postcode": "9990", "city": "Skagen", "type": "Folkebibliotek", "geo": {"lat": 57.722668, "lng": 10.5877079}},
{"id": "782000", "name": "Aars bibliotek", "area": "Vesthimmerlands Biblioteker", "street": "Søndergade 24", "postcode": "9600", "city": "Aars", "type": "Folkebibliotek", "geo": {"lat": 56.802403, "lng": 9.51731}},
{"id": "782001", "name": "Løgstør Bibliotek", "area": "Vesthimmerlands Biblioteker", "street": "Fredensgade 7", "postcode": "9670", "city": "Løgstør", "type": "Folkebibliotek", "geo": {"lat": 56.9675834, "lng": 9.2503011}},
{"id": "782002", "name": "Farsø Bibliotek", "area": "Vesthimmerlands Biblioteker", "street": "Frederik IX s Plads 3", "postcode": "9640", "city": "Farsø", "type": "Folkebibliotek", "geo": {"lat": 56.77161779999999, "lng": 9.3445009}},
{"id": "782003", "name": "Aalestrup Bibliotek", "area": "Vesthimmerlands Biblioteker", "street": "Knabergården 4", "postcode": "9620", "city": "Aalestrup", "type": "Folkebibliotek", "geo": {"lat": 56.694439, "lng": 9.49054}},
{"id": "782011", "name": "Gedsted Bogcafè", "area": "Vesthimmerlands Biblioteker", "street": "", "postcode": "", "city": "", "type": "Folkebibliotek"},
{"id": "782012", "name": "Hvalpsund Bogcafé", "area": "Vesthimmerlands Biblioteker", "street": "", "postcode": "", "city": "", "type": "Folkebibliotek"},
{"id": "782013", "name": "Ranum Bogcafé", "area": "Vesthimmerlands Biblioteker", "street": "", "postcode": "", "city": "", "type": "Folkebibliotek"},
{"id": "782014", "name": "Vegger Bogcafè", "area": "Vesthimmerlands Biblioteker", "street": "", "postcode": "", "city": "", "type": "Folkebibliotek"},
{"id": "782015", "name": "Overlade Bogcafé", "area": "Vesthimmerlands Biblioteker", "street": "", "postcode": "", "city": "", "type": "Folkebibliotek"},
{"id": "782500", "name": "Byrum, Læsø", "area": "Læsø Bibliotek", "street": "Byrum Hovedgade 58, Byrum", "postcode": "9940", "city": "Læsø (Laesoe)", "type": "Folkebibliotek", "geo": {"lat": 57.253753, "lng": 11.002351}},
{"id": "784000", "name": "Støvring Bibliotek", "area": "Rebild Kommunes Biblioteker", "street": "Hobrovej 90", "postcode": "9530", "city": "Støvring", "type": "Folkebibliotek", "geo": {"lat": 56.8889672, "lng": 9.836666899999999}},
{"id": "784001", "name": "Skørping Bibliotek", "area": "Rebild Kommunes Biblioteker", "street": "Sverriggårdsvej 4", "postcode": "9520", "city": "Skørping", "type": "Folkebibliotek", "geo": {"lat": 56.8358368, "lng": 9.887984}},
{"id": "784002", "name": "Terndrup Bibliotek", "area": "Rebild Kommunes Biblioteker", "street": "Terndrup Center 3", "postcode": "9575", "city": "Terndrup", "type": "Folkebibliotek", "geo": {"lat": 56.81248799999999, "lng": 10.058735}},
{"id": "784003", "name": "Nørager Bibliotek", "area": "Rebild Kommunes Biblioteker", "street": "Vestermarksvej 2", "postcode": "9610", "city": "Nørager", "type": "Folkebibliotek", "geo": {"lat": 56.7072673, "lng": 9.6279225}},
{"id": "784004", "name": "Bogbussen", "area": "Rebild Kommunes Biblioteker", "street": "Støvring Bibliotek Hobrovej 90", "postcode": "9530", "city": "Støvring", "type": "Folkebibliotek", "geo": {"lat": 56.8891113, "lng": 9.8362967}},
{"id": "784600", "name": "Hobro Bibliotek", "area": "Mariagerfjord Bibliotekerne", "street": "Hobro Bibliotek (hovedbibliotek) St. Torv", "postcode": "9500", "city": "Hobro", "type": "Folkebibliotek", "geo": {"lat": 56.6391392, "lng": 9.797647999999999}},
{"id": "784601", "name": "Arden Bibliotek", "area": "Mariagerfjord Bibliotekerne", "street": "Bluhmesgade 19 Postbox 103", "postcode": "9510", "city": "Arden", "type": "Folkebibliotek", "geo": {"lat": 56.769043, "lng": 9.856831999999999}},
{"id": "784602", "name": "Hadsund Bibliotek", "area": "Mariagerfjord Bibliotekerne", "street": "Kirkegade 4", "postcode": "9560", "city": "Hadsund", "type": "Folkebibliotek", "geo": {"lat": 56.71869940000001, "lng": 10.1178412}},
{"id": "784603", "name": "Mariager Bibliotek", "area": "Mariagerfjord Bibliotekerne", "street": "Teglgade 6", "postcode": "9550", "city": "Mariager", "type": "Folkebibliotek", "geo": {"lat": 56.650427, "lng": 9.980794999999999}},
{"id": "784605", "name": "Als Bibliotek", "area": "Mariagerfjord Bibliotekerne", "street": "Vikingvej 4", "postcode": "9560", "city": "Hadsund", "type": "Folkebibliotek", "geo": {"lat": 56.7565264, "lng": 10.2877988}},
{"id": "784900", "name": "Brovst Bibliotek", "area": "Jammerbugt Bibliotekerne", "street": "Rotfeldsvej 11", "postcode": "9460", "city": "Brovst", "type": "Folkebibliotek", "geo": {"lat": 57.101018, "lng": 9.517731999999999}},
{"id": "784901", "name": "Aabybro Bibliotek", "area": "Jammerbugt Bibliotekerne", "street": "Elmevej 2", "postcode": "9440", "city": "Aabybro", "type": "Folkebibliotek", "geo": {"lat": 57.1634563, "lng": 9.7347079}},
{"id": "784902", "name": "Pandrup Bibliotek", "area": "Jammerbugt Bibliotekerne", "street": "Lundbakvej 3 A", "postcode": "9490", "city": "Pandrup", "type": "Folkebibliotek", "geo": {"lat": 57.220598, "lng": 9.677702}},
{"id": "784903", "name": "Fjerritslev Bibliotek", "area": "Jammerbugt Bibliotekerne", "street": "Danmarksgade 1", "postcode": "9690", "city": "Fjerritslev", "type": "Folkebibliotek", "geo": {"lat": 57.087405, "lng": 9.265699}},
{"id": "784904", "name": "Bogbus", "area": "Jammerbugt Bibliotekerne", "street": "Rotfeldsvej 11", "postcode": "9460", "city": "Brovst", "type": "Folkebibliotek", "geo": {"lat": 57.101018, "lng": 9.517731999999999}},
{"id": "785100", "name": "Aalborg Bibliotekerne. Hovedbiblioteket", "area": "Aalborg Bibliotekerne", "street": "Rendsburggade 2", "postcode": "9000", "city": "Aalborg", "type": "Folkebibliotek", "geo": {"lat": 57.0472572, "lng": 9.9275896}},
{"id": "785101", "name": "Haraldslund Bibliotek", "area": "Aalborg Bibliotekerne", "street": "Kastetvej 83", "postcode": "9000", "city": "Aalborg", "type": "Folkebibliotek", "geo": {"lat": 57.054224, "lng": 9.898961}},
{"id": "785103", "name": "Vejgaard Bibliotek", "area": "Aalborg Bibliotekerne", "street": "Hadsundvej 35", "postcode": "9000", "city": "Aalborg", "type": "Folkebibliotek", "geo": {"lat": 57.041402, "lng": 9.951504}},
{"id": "785104", "name": "Biblioteket Grønlands Torv", "area": "Aalborg Bibliotekerne", "street": "Grønlands Torv 1, st.", "postcode": "9210", "city": "Aalborg SØ", "type": "Folkebibliotek", "geo": {"lat": 57.0230115, "lng": 9.94299}},
{"id": "785106", "name": "Trekanten Bibliotek & Kulturhus", "area": "Aalborg Bibliotekerne", "street": "Sebbersundvej 2A", "postcode": "9220", "city": "Aalborg ØSt", "type": "Folkebibliotek", "geo": {"lat": 57.0277153, "lng": 10.0003913}},
{"id": "785107", "name": "Hasseris Bibliotek", "area": "Aalborg Bibliotekerne", "street": "Hasseris Bymidte 3", "postcode": "9000", "city": "Aalborg", "type": "Folkebibliotek", "geo": {"lat": 57.036556, "lng": 9.88339}},
{"id": "785109", "name": "Nørresundby Bibliotek", "area": "Aalborg Bibliotekerne", "street": "Østerbrogade 52B", "postcode": "9400", "city": "Nørresundby", "type": "Folkebibliotek", "geo": {"lat": 57.05771069999999, "lng": 9.924379499999999}},
{"id": "785113", "name": "Svenstrup Bibliotek", "area": "Aalborg Bibliotekerne", "street": "Godthåbsvej 14 D", "postcode": "9230", "city": "Svenstrup J", "type": "Folkebibliotek", "geo": {"lat": 56.9723414, "lng": 9.851740099999999}},
{"id": "785116", "name": "Vodskov Bibliotek", "area": "Aalborg Bibliotekerne", "street": "Vodskovvej 28", "postcode": "9310", "city": "Vodskov", "type": "Folkebibliotek", "geo": {"lat": 57.10377, "lng": 10.027571}},
{"id": "785117", "name": "Hals Bibliotek", "area": "Aalborg Bibliotekerne", "street": "Østergade 2A", "postcode": "9370", "city": "Hals", "type": "Folkebibliotek", "geo": {"lat": 56.9950239, "lng": 10.3095658}},
{"id": "785123", "name": "Nibe Bibliotek", "area": "Aalborg Bibliotekerne", "street": "St. Algade 4", "postcode": "9240", "city": "Nibe", "type": "Folkebibliotek", "geo": {"lat": 56.98209499999999, "lng": 9.636341999999999}},
{"id": "785143", "name": "Storvorde Bibliotek", "area": "Aalborg Bibliotekerne", "street": "Stationsvej 5", "postcode": "9280", "city": "Storvorde", "type": "Folkebibliotek", "geo": {"lat": 57.001631, "lng": 10.101506}},
{"id": "786000", "name": "Hjørring Bibliotek", "area": "Hjørring Bibliotekerne", "street": "Metropol, Østergade 30", "postcode": "9800", "city": "Hjørring", "type": "Folkebibliotek", "geo": {"lat": 57.4580861, "lng": 9.9909581}},
{"id": "786001", "name": "Hirtshals Bibliotek", "area": "Hjørring Bibliotekerne", "street": "Jørgen Fibigersgade 20", "postcode": "9850", "city": "Hirtshals", "type": "Folkebibliotek", "geo": {"lat": 57.59048070000001, "lng": 9.9603369}},
{"id": "786002", "name": "Vrå Bibliotek", "area": "Hjørring Bibliotekerne", "street": "Sønder Vråvej 1", "postcode": "9760", "city": "Vrå", "type": "Folkebibliotek", "geo": {"lat": 57.35310799999999, "lng": 9.946824}},
{"id": "786003", "name": "Løkken Bibliotek", "area": "Hjørring Bibliotekerne", "street": "Nørregade 28", "postcode": "9480", "city": "Løkken", "type": "Folkebibliotek", "geo": {"lat": 57.372502, "lng": 9.714157}},
{"id": "786004", "name": "Sindal Bibliotek", "area": "Hjørring Bibliotekerne", "street": "Torvegade 15", "postcode": "9870", "city": "Sindal", "type": "Folkebibliotek", "geo": {"lat": 57.472046, "lng": 10.200346}},
{"id": "786006", "name": "Tårs", "area": "Hjørring Bibliotekerne", "street": "Fakta Guldregnvej 3", "postcode": "9830", "city": "Tårs", "type": "Folkebibliotek", "geo": {"lat": 57.387019, "lng": 10.11397}},
{"id": "786007", "name": "Bindslev", "area": "Hjørring Bibliotekerne", "street": "Dagli'Brugsen Vesterbro 9", "postcode": "9881", "city": "Bindslev", "type": "Folkebibliotek", "geo": {"lat": 57.5420495, "lng": 10.1964522}},
{"id": "786008", "name": "Bjergby", "area": "Hjørring Bibliotekerne", "street": "Bjergby-Mygdal Skole Asdalvej 14 Bjergby", "postcode": "9800", "city": "Hjørring", "type": "Folkebibliotek", "geo": {"lat": 57.5134, "lng": 10.025916}},
{"id": "786009", "name": "Tornby", "area": "Hjørring Bibliotekerne", "street": "Ældrecenter HAvbakken Købstedvej 6 Tornby", "postcode": "9860", "city": "Tornby", "type": "Folkebibliotek"},
{"id": "786010", "name": "Tversted", "area": "Hjørring Bibliotekerne", "street": "Super Spar Tannisbugtvej 38 Tversted", "postcode": "9881", "city": "Bindslev", "type": "Folkebibliotek", "geo": {"lat": 57.58692, "lng": 10.188126}},
{"id": "786011", "name": "Mosbjerg", "area": "Hjørring Bibliotekerne", "street": "Botilbuddet Mosbjerghus Jerupvej 485 Mosbjerg", "postcode": "9870", "city": "Sindal", "type": "Folkebibliotek", "geo": {"lat": 57.50357599999999, "lng": 10.278933}},
{"id": "786012", "name": "Lønstrup", "area": "Hjørring Bibliotekerne", "street": "Super Spar, Strandvejen 82 Lønstrup", "postcode": "9800", "city": "Hjørring", "type": "Folkebibliotek", "geo": {"lat": 57.471932, "lng": 9.797296}},
{"id": "810010", "name": "Det Kongelige Bibliotek, Diamanten", "area": "Det Kongelige Bibliotek: Nationalbibliotek og Københavns Universitetsbibliotek", "street": "Søren Kierkegaards Plads 1", "postcode": "1221", "city": "København K", "type": "Forskningsbibliotek", "geo": {"lat": 55.67321579999999, "lng": 12.5821264}},
{"id": "810011", "name": "Det Samfundsvidenskabelige Fakultetsbibliotek", "area": "Det Kongelige Bibliotek: Nationalbibliotek og Københavns Universitetsbibliotek", "street": "Gothersgade 140", "postcode": "1123", "city": "København K", "type": "Forskningsbibliotek", "geo": {"lat": 55.6856006, "lng": 12.5700945}},
{"id": "810012", "name": "Det Humanistiske Fakultetsbibliotek", "area": "Det Kongelige Bibliotek: Nationalbibliotek og Københavns Universitetsbibliotek", "street": "Njalsgade 112", "postcode": "2300", "city": "København S", "type": "Forskningsbibliotek", "geo": {"lat": 55.661891, "lng": 12.589797}},
{"id": "810013", "name": "Københavns Universitetsbibliotek Nord (KUB Nord)", "area": "Det Kongelige Bibliotek: Nationalbibliotek og Københavns Universitetsbibliotek", "street": "Nørre Allé, 49", "postcode": "2200", "city": "København N", "type": "Forskningsbibliotek", "geo": {"lat": 55.697244, "lng": 12.5611979}},
{"id": "820090", "name": "Det Farmaceutiske Bibliotek", "area": "Det Kongelige Bibliotek: Nationalbibliotek og Københavns Universitetsbibliotek", "street": "Universitetsparken 4, 2. etage", "postcode": "2100", "city": "København Ø", "type": "Forskningsbibliotek", "geo": {"lat": 55.703168, "lng": 12.5595074}},
{"id": "820110", "name": "Københavns Universitetsbibliotek Frederiksberg (KUB Frederiksberg)", "area": "Det Kongelige Bibliotek: Nationalbibliotek og Københavns Universitetsbibliotek", "street": "Dyrlægevej 10", "postcode": "1870", "city": "Frederiksberg C", "type": "Forskningsbibliotek", "geo": {"lat": 55.679072, "lng": 12.54134}},
{"id": "830010", "name": "Det Informationsvidenskabelige Akademi, Birketinget 6", "area": "Det Kongelige Bibliotek: Nationalbibliotek og Københavns Universitetsbibliotek", "street": "Birketinget 6", "postcode": "2300", "city": "København S", "type": "Forskningsbibliotek", "geo": {"lat": 55.656189, "lng": 12.598737}},
{"id": "840540", "name": "Juridisk Videncenter", "area": "Det Kongelige Bibliotek: Nationalbibliotek og Københavns Universitetsbibliotek", "street": "Studiestræde 34", "postcode": "1455", "city": "København K", "type": "Forskningsbibliotek", "geo": {"lat": 55.6781961, "lng": 12.5680503}},
{"id": "820010", "name": "Statsbiblioteket", "area": "Statsbiblioteket", "street": "Victor Albecks Vej 1", "postcode": "8000", "city": "Aarhus C", "type": "Forskningsbibliotek", "geo": {"lat": 56.1701747, "lng": 10.199239}},
{"id": "820014", "name": "AU Library Sundhedsvidenskab", "area": "Statsbiblioteket", "street": "Vennelyst Boulevard 4", "postcode": "8000", "city": "Aarhus", "type": "Forskningsbibliotek", "geo": {"lat": 56.166644, "lng": 10.206756}},
{"id": "850920", "name": "AU Library, Psykiatri", "area": "Statsbiblioteket", "street": "Skovagervej 2, Indgang 47, 1. sal", "postcode": "8240", "city": "Risskov", "type": "Forskningsbibliotek", "geo": {"lat": 56.18827599999999, "lng": 10.226571}},
{"id": "820030", "name": "Syddansk Universitetsbibliotek, Odense", "area": "Syddansk Universitetsbibliotek", "street": "Campusvej 55", "postcode": "5230", "city": "Odense M", "type": "Forskningsbibliotek", "geo": {"lat": 55.3683931, "lng": 10.4276852}},
{"id": "820031", "name": "Syddansk Universitetsbibliotek Esbjerg", "area": "Syddansk Universitetsbibliotek", "street": "Niels Bohrs Vej 9", "postcode": "6700", "city": "Esbjerg", "type": "Forskningsbibliotek", "geo": {"lat": 55.49103599999999, "lng": 8.449366}},
{"id": "820032", "name": "Syddansk Universitetsbibliotek Kolding", "area": "Syddansk Universitetsbibliotek", "street": "Universitetsparken 1", "postcode": "6000", "city": "Kolding", "type": "Forskningsbibliotek", "geo": {"lat": 55.495973, "lng": 9.4730519}},
{"id": "820033", "name": "Syddansk Universitetsbibliotek Sønderborg", "area": "Syddansk Universitetsbibliotek", "street": "Alsion 2", "postcode": "6400", "city": "Sønderborg", "type": "Forskningsbibliotek", "geo": {"lat": 54.9130458, "lng": 9.7789006}},
{"id": "820036", "name": "Syddansk Universitetsbibliotek Musikafdelingen", "area": "Syddansk Universitetsbibliotek", "street": "Islandsgade 2", "postcode": "5000", "city": "Odense C", "type": "Forskningsbibliotek", "geo": {"lat": 55.400929, "lng": 10.402539}},
{"id": "820037", "name": "Syddansk Universitetsbibliotek, Matematisk Bibliotek", "area": "Syddansk Universitetsbibliotek", "street": "Campusvej 55", "postcode": "5230", "city": "Odense M", "type": "Forskningsbibliotek", "geo": {"lat": 55.3683931, "lng": 10.4276852}},
{"id": "820038", "name": "Syddansk Universitetsbibliotek, Teknisk Bibliotek", "area": "Syddansk Universitetsbibliotek", "street": "Niels Bohrs Allé 11", "postcode": "5230", "city": "Odense M", "type": "Forskningsbibliotek", "geo": {"lat": 55.374192, "lng": 10.39951}},
{"id": "820039", "name": "Syddansk Universitetsbibliotek Slagelse, Biblioteket", "area": "Syddansk Universitetsbibliotek", "street": "Sdr. Stationsvej 28", "postcode": "4200", "city": "Slagelse", "type": "Forskningsbibliotek", "geo": {"lat": 55.4072389, "lng": 11.3485739}},
{"id": "852500", "name": "Gerlev Idrætshøjskole", "area": "Syddansk Universitetsbibliotek", "street": "Skælskør Landevej 28", "postcode": "4200", "city": "Slagelse", "type": "Forskningsbibliotek", "geo": {"lat": 55.3539363, "lng": 11.3266799}},
{"id": "820040", "name": "Roskilde Universitetsbibliotek", "area": "Roskilde Universitetsbibliotek", "street": "Universitetsvej 1", "postcode": "4000", "city": "Roskilde", "type": "Forskningsbibliotek", "geo": {"lat": 55.652912, "lng": 12.143393}},
{"id": "820050", "name": "Aalborg Universitetsbibliotek", "area": "Aalborg Universitetsbibliotek", "street": "Langagervej 2", "postcode": "9220", "city": "Aalborg Øst", "type": "Forskningsbibliotek", "geo": {"lat": 57.020799, "lng": 9.977611999999999}},
{"id": "820060", "name": "Danmarks Tekniske Informationscenter, Lyngby", "area": "DTU Bibliotek. Danmarks Tekniske Informationscenter", "street": "Anker Engelunds Vej 1 Bygning 101D", "postcode": "2800", "city": "Kgs. Lyngby", "type": "Forskningsbibliotek"},
{"id": "820070", "name": "AU  Library, Campus Emdrup (DPB)", "area": "AU Library, Campus Emdrup (DPB)", "street": "Postboks 840 Tuborgvej 164", "postcode": "2400", "city": "København NV", "type": "Forskningsbibliotek", "geo": {"lat": 55.72170999999999, "lng": 12.543195}},
{"id": "820080", "name": "Biblioteket Arkitektskolen Aarhus", "area": "Biblioteket Arkitektskolen Aarhus", "street": "Nørreport 20", "postcode": "8000", "city": "Århus C", "type": "Forskningsbibliotek", "geo": {"lat": 56.1612494, "lng": 10.2124633}},
{"id": "820120", "name": "CBS Bibliotek - Solbjerg Plads", "area": "CBS Bibliotek", "street": "Solbjerg Plads 3", "postcode": "2000", "city": "Frederiksberg", "type": "Forskningsbibliotek", "geo": {"lat": 55.68158889999999, "lng": 12.5290918}},
{"id": "820122", "name": "CBS Bibliotek - Porcelænshaven", "area": "CBS Bibliotek", "street": "Porcelænshaven 26", "postcode": "2000", "city": "Frederiksberg", "type": "Forskningsbibliotek", "geo": {"lat": 55.677864, "lng": 12.521467}},
{"id": "820140", "name": "AU Library, Fuglesangs Alle", "area": "AU Library, Fuglesangs Allé", "street": "Fuglesangs Allé 4", "postcode": "8210", "city": "Århus V", "type": "Forskningsbibliotek", "geo": {"lat": 56.1622333, "lng": 10.1824915}},
{"id": "830300", "name": "AU Library, Herning", "area": "AU Library, Fuglesangs Allé", "street": "Birk Centerpark 15", "postcode": "7400", "city": "Herning", "type": "Forskningsbibliotek", "geo": {"lat": 56.1294714, "lng": 9.027054399999999}},
{"id": "820150", "name": "Danmarks Kunstbibliotek, Nytorv Afdeling", "area": "Danmarks Kunstbibliotek", "street": "Nyhavn 2 Postboks 1053", "postcode": "1007", "city": "København K", "type": "Forskningsbibliotek", "geo": {"lat": 55.6760968, "lng": 12.5683371}},
{"id": "830080", "name": "Biblioteket for Arkitektur, Design og Scenekunst", "area": "Kunstakademiet for Arkitektur, Design og Konservering. Biblioteket", "street": "Danneskiold-Samsøes Allé 50", "postcode": "1434", "city": "København K", "type": "Forskningsbibliotek", "geo": {"lat": 55.68141929999999, "lng": 12.6051379}},
{"id": "840090", "name": "Konserveringsfagligt Videncenter", "area": "Kunstakademiet for Arkitektur, Design og Konservering. Biblioteket", "street": "Besøgsadresse: Amaliegade 38", "postcode": "1252", "city": "København K", "type": "Forskningsbibliotek", "geo": {"lat": 55.6859785, "lng": 12.5950453}},
{"id": "830190", "name": "University College Syddanmark Biblioteket, Esbjerg", "area": "University College Syddanmark Biblioteket", "street": "Degnevej 16", "postcode": "6705", "city": "Esbjerg Ø", "type": "Forskningsbibliotek", "geo": {"lat": 55.4833649, "lng": 8.4857417}},
{"id": "830290", "name": "University College Syddanmark Biblioteket, Haderslev", "area": "University College Syddanmark Biblioteket", "street": "Lembckesvej 3 - 7", "postcode": "6100", "city": "Haderslev", "type": "Forskningsbibliotek", "geo": {"lat": 55.25456029999999, "lng": 9.4854699}},
{"id": "830500", "name": "University College Syddanmark Biblioteket, Kolding", "area": "University College Syddanmark Biblioteket", "street": "Dyrehavevej 116", "postcode": "6000", "city": "Kolding", "type": "Forskningsbibliotek", "geo": {"lat": 55.4997515, "lng": 9.4731599}},
{"id": "830980", "name": "University College Syddanmark Biblioteket, Aabenraa", "area": "University College Syddanmark Biblioteket", "street": "Dr. Margrethesvej 11-13", "postcode": "6200", "city": "Aabenraa", "type": "Forskningsbibliotek", "geo": {"lat": 55.040852, "lng": 9.415158900000002}},
{"id": "831220", "name": "University College Syddanmark Biblioteket, Sønderborg", "area": "University College Syddanmark Biblioteket", "street": "Agervang 2", "postcode": "6400", "city": "Sønderborg", "type": "Forskningsbibliotek", "geo": {"lat": 54.92099649999999, "lng": 9.7820018}},
{"id": "830370", "name": "UCSJ, Ernæring og Sundhed Ankerhus, Biblioteket", "area": "University College Sjælland. Bibliotekerne", "street": "Slagelsevej 70-74", "postcode": "4180", "city": "Sorø", "type": "Forskningsbibliotek", "geo": {"lat": 55.444605, "lng": 11.547643}},
{"id": "830371", "name": "UCSJ Administrationen", "area": "University College Sjælland. Bibliotekerne", "street": "Slagelsevej 7", "postcode": "4180", "city": "Sorø", "type": "Forskningsbibliotek", "geo": {"lat": 55.4397849, "lng": 11.5575087}},
{"id": "830372", "name": "UCSJ, Campus Roskilde Biblioteket", "area": "University College Sjælland. Bibliotekerne", "street": "Trekroner Forskerparken 4", "postcode": "4000", "city": "Roskilde", "type": "Forskningsbibliotek", "geo": {"lat": 55.6507804, "lng": 12.141245}},
{"id": "830960", "name": "UCSJ, Læreruddannelsen Vordingborg, Biblioteket", "area": "University College Sjælland. Bibliotekerne", "street": "Kuskevej 1 ", "postcode": "4760", "city": "Vordingborg", "type": "Forskningsbibliotek", "geo": {"lat": 55.0131363, "lng": 11.8975872}},
{"id": "830961", "name": "UCSJ, Uddannelserne Nykøbing F., Biblioteket", "area": "University College Sjælland. Bibliotekerne", "street": "Bispegade 5", "postcode": "4800", "city": "Nykøbing F.", "type": "Forskningsbibliotek", "geo": {"lat": 54.764658, "lng": 11.878863}},
{"id": "830963", "name": "UCSJ, Sundhedsuddannelserne Næstved, Biblioteket", "area": "University College Sjælland. Bibliotekerne", "street": "Parkvej 190", "postcode": "4700", "city": "Næstved", "type": "Forskningsbibliotek", "geo": {"lat": 55.205479, "lng": 11.767418}},
{"id": "861380", "name": "UCSJ, Sygeplejerskeuddannelsen Slagelse, Biblioteket", "area": "University College Sjælland. Bibliotekerne", "street": "Ingemannsvej 17", "postcode": "4200", "city": "Slagelse", "type": "Forskningsbibliotek", "geo": {"lat": 55.403493, "lng": 11.36076}},
{"id": "830380", "name": "University College Nordjylland, Biblioteket, Mylius Erichsens Vej", "area": "University College Nordjylland, Biblioteket", "street": "Mylius Erichsens Vej 137", "postcode": "9210", "city": "Aalborg SØ", "type": "Forskningsbibliotek", "geo": {"lat": 57.018337, "lng": 9.948461}},
{"id": "830381", "name": "University College Nordjylland, Biblioteket, Lindholm Brygge", "area": "University College Nordjylland, Biblioteket", "street": "Lindholm Brygge 35", "postcode": "9400", "city": "Nørresundby", "type": "Forskningsbibliotek", "geo": {"lat": 57.063526, "lng": 9.89724}},
{"id": "831000", "name": "University College Nordjylland, Biblioteket, Skolevangen", "area": "University College Nordjylland, Biblioteket", "street": "Skolevangen 45", "postcode": "9800", "city": "Hjørring", "type": "Forskningsbibliotek", "geo": {"lat": 57.45855899999999, "lng": 10.003269}},
{"id": "831080", "name": "University College Nordjylland, Biblioteket, Selma Lagerløfs Vej", "area": "University College Nordjylland, Biblioteket", "street": "Selma Lagerløfs Vej 2", "postcode": "9220", "city": "Aalborg Øst", "type": "Forskningsbibliotek", "geo": {"lat": 57.016158, "lng": 9.9941739}},
{"id": "860890", "name": "University College Nordjylland, Biblioteket, Porthusgade", "area": "University College Nordjylland, Biblioteket", "street": "Porthusgade 1", "postcode": "9000", "city": "Aalborg", "type": "Forskningsbibliotek", "geo": {"lat": 57.054254, "lng": 9.912232999999999}},
{"id": "860893", "name": "University College Nordjylland, Biblioteket, Sofiendalsvej", "area": "University College Nordjylland, Biblioteket", "street": "Sofiendalsvej 60", "postcode": "9200", "city": "Aalborg SV", "type": "Forskningsbibliotek", "geo": {"lat": 57.021055, "lng": 9.885131}},
{"id": "830600", "name": "Den frie lærerskole, Biblioteket", "area": "Den frie lærerskole, Biblioteket", "street": "Svendborgvej 15 Ollerup", "postcode": "5762", "city": "V.Skerninge", "type": "Forskningsbibliotek", "geo": {"lat": 55.07103, "lng": 10.506812}},
{"id": "830460", "name": "University College Lillebælt. Biblioteket Jelling", "area": "University College Lillebælt, Biblioteket", "street": "Vejlevej 2", "postcode": "7300", "city": "Jelling", "type": "Forskningsbibliotek", "geo": {"lat": 55.755695, "lng": 9.420212}},
{"id": "830690", "name": "University College Lillebælt. Biblioteket Asylgade", "area": "University College Lillebælt, Biblioteket", "street": "Asylgade 7-9", "postcode": "5000", "city": "Odense C", "type": "Forskningsbibliotek", "geo": {"lat": 55.3973436, "lng": 10.3874569}},
{"id": "830691", "name": "University College Lillebælt. Biblioteket Middelfartvej", "area": "University College Lillebælt, Biblioteket", "street": "Middelfartvej 180", "postcode": "5200", "city": "Odense V", "type": "Forskningsbibliotek", "geo": {"lat": 55.3913896, "lng": 10.3386789}},
{"id": "830700", "name": "University College Lillebælt. Biblioteket Rømersvej", "area": "University College Lillebælt, Biblioteket", "street": "Rømersvej 3", "postcode": "5200", "city": "Odense C", "type": "Forskningsbibliotek", "geo": {"lat": 55.395601, "lng": 10.346454}},
{"id": "830860", "name": "University College Lillebælt. Biblioteket Blangstedgårdsvej", "area": "University College Lillebælt, Biblioteket", "street": "Blangstedgårdsvej 4", "postcode": "5220", "city": "Odense SØ", "type": "Forskningsbibliotek", "geo": {"lat": 55.3896604, "lng": 10.440976}},
{"id": "831120", "name": "University College Lillebælt. Biblioteket Tolderlundsvej", "area": "University College Lillebælt, Biblioteket", "street": "Tolderlundsvej 5", "postcode": "5000", "city": "Odense C", "type": "Forskningsbibliotek", "geo": {"lat": 55.404753, "lng": 10.387987}},
{"id": "861300", "name": "University College Lillebælt. Biblioteket Vejle", "area": "University College Lillebælt, Biblioteket", "street": "Vestre Engvej 51 C", "postcode": "7100", "city": "Vejle", "type": "Forskningsbibliotek", "geo": {"lat": 55.7077097, "lng": 9.517832499999999}},
{"id": "861610", "name": "University College Lillebælt. Biblioteket Svendborg", "area": "University College Lillebælt, Biblioteket", "street": "Baagøes Allé 8B", "postcode": "5700", "city": "Svendborg", "type": "Forskningsbibliotek", "geo": {"lat": 55.054455, "lng": 10.602034}},
{"id": "830930", "name": "Syddansk Musikkonservatorium (SDMK) Esbjerg, Biblioteket", "area": "Syddansk Musikkonservatorium (SDMK) Esbjerg, Biblioteket", "street": "Kirkegade 61", "postcode": "6700", "city": "Esbjerg", "type": "Forskningsbibliotek", "geo": {"lat": 55.4704747, "lng": 8.4506202}},
{"id": "830400", "name": "VIA Biblioteket Campus Holstebro", "area": "VIA UC Bibliotekerne", "street": "Gl. Struervej 1", "postcode": "7500", "city": "Holstebro", "type": "Forskningsbibliotek", "geo": {"lat": 56.3707225, "lng": 8.6169082}},
{"id": "830410", "name": "VIA Biblioteket Campus Horsens", "area": "VIA UC Bibliotekerne", "street": "Chr. M. Østergaards Vej 4", "postcode": "8700", "city": "Horsens", "type": "Forskningsbibliotek", "geo": {"lat": 55.871524, "lng": 9.886037}},
{"id": "830471", "name": "VIA Biblioteket Campus Randers", "area": "VIA UC Bibliotekerne", "street": "Jens Otto Krags Plads 3", "postcode": "8900", "city": "Randers C", "type": "Forskningsbibliotek", "geo": {"lat": 56.4613818, "lng": 10.0426475}},
{"id": "830660", "name": "VIA Studieværkstedet i Nørre Nissum", "area": "VIA UC Bibliotekerne", "street": "Svinget 5", "postcode": "7620", "city": "Lemvig", "type": "Forskningsbibliotek", "geo": {"lat": 56.54734, "lng": 8.420313}},
{"id": "830750", "name": "VIA Biblioteket Campus Silkeborg", "area": "VIA UC Bibliotekerne", "street": "Nattergalevej 1", "postcode": "8600", "city": "Silkeborg", "type": "Forskningsbibliotek", "geo": {"lat": 56.168618, "lng": 9.573110999999999}},
{"id": "830770", "name": "VIA Pædagogisk Bibliotek i Skive", "area": "VIA UC Bibliotekerne", "street": "Dalgas Allé 20", "postcode": "7800", "city": "Skive", "type": "Forskningsbibliotek", "geo": {"lat": 56.5503529, "lng": 9.0127815}},
{"id": "830950", "name": "VIA Biblioteket Campus Viborg", "area": "VIA UC Bibliotekerne", "street": "Prinsens Allé 2", "postcode": "8800", "city": "Viborg", "type": "Forskningsbibliotek", "geo": {"lat": 56.458726, "lng": 9.402872}},
{"id": "830951", "name": "VIA Biblioteket Halmstadgade", "area": "VIA UC Bibliotekerne", "street": "Halmstadgade 2", "postcode": "8200", "city": "Aarhus N", "type": "Forskningsbibliotek", "geo": {"lat": 56.182004, "lng": 10.192448}},
{"id": "831350", "name": "VIA Studiebiblioteket Campus Aarhus N", "area": "VIA UC Bibliotekerne", "street": "Hedeager 2", "postcode": "8200", "city": "Aarhus N", "type": "Forskningsbibliotek", "geo": {"lat": 56.192499, "lng": 10.181203}},
{"id": "831040", "name": "AU Library, Navitas", "area": "AU Library. Navitas", "street": "Inge Lehmanns Gade 10", "postcode": "8000", "city": "Aarhus C", "type": "Forskningsbibliotek", "geo": {"lat": 56.1587207, "lng": 10.2154356}},
{"id": "841260", "name": "AU Library, Ny Munkegade", "area": "AU Library. Navitas", "street": "Ny Munkegade 118", "postcode": "8000", "city": "Århus C", "type": "Forskningsbibliotek", "geo": {"lat": 56.16645029999999, "lng": 10.198699}},
{"id": "851040", "name": "AU Library, Foulum", "area": "AU Library. Navitas", "street": "Postboks 50", "postcode": "8830", "city": "Tjele", "type": "Forskningsbibliotek", "geo": {"lat": 56.51081, "lng": 9.6116569}},
{"id": "872120", "name": "AU Library, Katrinebjerg", "area": "AU Library. Navitas", "street": "Helsingforsgade 12 Bygning 5335 - 1. sal  ", "postcode": "8200", "city": "Aarhus N", "type": "Forskningsbibliotek"},
{"id": "831140", "name": "CELF, Biblioteket Merkur", "area": "CELF. Center for Erhvervsrettede Uddannelser Lolland Falster. Biblioteket", "street": "Merkurs Plads 1", "postcode": "4800", "city": "Nykøbing F", "type": "Forskningsbibliotek", "geo": {"lat": 54.775845, "lng": 11.878755}},
{"id": "861130", "name": "CELF, Biblioteket Kringelborg", "area": "CELF. Center for Erhvervsrettede Uddannelser Lolland Falster. Biblioteket", "street": "Kringelborg Allé 7", "postcode": "4800", "city": "Nykøbing F.", "type": "Forskningsbibliotek", "geo": {"lat": 54.759583, "lng": 11.898277}},
{"id": "831420", "name": "Den Danske Filmskoles Bibliotek", "area": "Den Danske Filmskoles Bibliotek", "street": "Theodor Christensens Plads 1", "postcode": "1437", "city": "København K", "type": "Forskningsbibliotek", "geo": {"lat": 55.68114199999999, "lng": 12.605424}},
{"id": "840200", "name": "Afdeling for Anvendt Matematik og Statistik, Biblioteket", "area": "Afdeling for Anvendt Matematik og Statistik", "street": "undefined", "postcode": "undefined", "city": "undefined", "type": "Forskningsbibliotek"},
{"id": "850010", "name": "Det Administrative Bibliotek", "area": "Det Administrative Bibliotek", "street": "Slotsholmsgade 12", "postcode": "1216", "city": "København K", "type": "Forskningsbibliotek", "geo": {"lat": 55.6748711, "lng": 12.584745}},
{"id": "850020", "name": "Arbejdermuseet & Arbejderbevægelsens Bibliotek og Arkiv", "area": "Arbejdermuseet & Arbejderbevægelsens Bibliotek og Arkiv", "street": "Hørsvinget 5", "postcode": "2630", "city": "Taastrup", "type": "Forskningsbibliotek", "geo": {"lat": 55.660866, "lng": 12.303565}},
{"id": "850030", "name": "SFI - Det Nationale Forskningscenter for Velfærd, Bibliotek", "area": "SFI - Det Nationale Forskningscenter for Velfærd. Biblioteket", "street": "Herluf Trollesgade 11", "postcode": "1052", "city": "København K", "type": "Forskningsbibliotek", "geo": {"lat": 55.6789316, "lng": 12.590436}},
{"id": "850040", "name": "Forsvarets Bibliotekscenter, Kastellet", "area": "Forsvarets Bibliotekscenter, Kastellet", "street": "Kastellet 46", "postcode": "2100", "city": "København Ø", "type": "Forskningsbibliotek", "geo": {"lat": 55.6914492, "lng": 12.5949606}},
{"id": "850170", "name": "Sydvestjysk Sygehus/Esbjerg, Medicinsk Bibliotek", "area": "Sydvestjysk Sygehus/Esbjerg, Medicinsk Bibliotek", "street": "Finsensgade 35", "postcode": "6700", "city": "Esbjerg", "type": "Forskningsbibliotek", "geo": {"lat": 55.473873, "lng": 8.456591999999999}},
{"id": "850290", "name": "Det Danske Filminstituts Bibliotek", "area": "Det Danske Filminstituts Bibliotek", "street": "Gothersgade 55", "postcode": "1123", "city": "København K", "type": "Forskningsbibliotek", "geo": {"lat": 55.683134, "lng": 12.5785509}},
{"id": "850590", "name": "KVINFO. Videnscenter og forskningsbibliotek for køn, ligestilling og mangfoldighed", "area": "KVINFO. Videnscenter og forskningsbibliotek for køn, ligestilling og mangfoldighed", "street": "Chr. Brygge 3", "postcode": "1219", "city": "København K", "type": "Forskningsbibliotek", "geo": {"lat": 55.768308, "lng": 12.4922229}},
{"id": "850650", "name": "Botanisk Centralbibliotek", "area": "Botanisk Centralbibliotek", "street": "Sølvgade 83, opg. S", "postcode": "1307", "city": "København K", "type": "Forskningsbibliotek", "geo": {"lat": 55.6879339, "lng": 12.578571}},
{"id": "850863", "name": "Musikmuseet - Musikhistorisk Museum og Carl Claudius Samling", "area": "Nationalmuseets Biblioteker", "street": "Rosenørns Allé 22 ", "postcode": "1970", "city": "Frederiksberg C", "type": "Forskningsbibliotek", "geo": {"lat": 55.68221, "lng": 12.552525}},
{"id": "850980", "name": "Psykiatrisk Center Sct. Hans. Fagbiblioteket", "area": "Psykiatrisk Center Sct. Hans. Fagbiblioteket", "street": "Boserupvej 2", "postcode": "4000", "city": "Roskilde", "type": "Forskningsbibliotek", "geo": {"lat": 55.650558, "lng": 12.068446}},
{"id": "851090", "name": "Statens Serum Institut, Biblioteket", "area": "Statens Serum Institut, Biblioteket", "street": "Artillerivej 5", "postcode": "2300", "city": "København S", "type": "Forskningsbibliotek", "geo": {"lat": 55.666087, "lng": 12.587445}},
{"id": "851170", "name": "Sygehus Sønderjylland, Lærings- og Forskningshuset, Fagbiblioteket", "area": "Sygehus Sønderjylland, Lærings- og Forskningshuset. Fagbiblioteket", "street": "Kresten Philipsens Vej 15 F", "postcode": "6200", "city": "Aabenraa", "type": "Forskningsbibliotek", "geo": {"lat": 55.06306259999999, "lng": 9.3771647}},
{"id": "851290", "name": "Aarhus Universitetshospital/Århus Sygehus, Lægebiblioteket", "area": "Aarhus Universitetshospital/Aarhus Sygehus. Forskningsbiblioteket", "street": "Tage-Hansens Gade 2", "postcode": "8000", "city": "Århus C", "type": "Forskningsbibliotek", "geo": {"lat": 56.15905490000001, "lng": 10.1848891}},
{"id": "851380", "name": "Odense Universitetshospital, Videncentret", "area": "Odense Universitetshospital Videncentret", "street": "Sdr. Boulevard", "postcode": "5000", "city": "Odense C", "type": "Forskningsbibliotek", "geo": {"lat": 55.38168959999999, "lng": 10.3717036}},
{"id": "851470", "name": "Polarbiblioteket", "area": "Polarbiblioteket. Københavns Universitet. Afd. for Eskimologi og Arktiske Studier", "street": "Strandgade 102", "postcode": "1401", "city": "København K", "type": "Forskningsbibliotek", "geo": {"lat": 55.6772229, "lng": 12.5971624}},
{"id": "852360", "name": "Sygehus Lillebælt, Fagbiblioteket", "area": "Sygehus Lillebælt. Fagbiblioteket", "street": "Kabbeltoft 25", "postcode": "7100", "city": "Vejle", "type": "Forskningsbibliotek", "geo": {"lat": 55.7147509, "lng": 9.5382562}},
{"id": "852610", "name": "Folketingets Ombudsmand, Biblioteket", "area": "Folketingets Ombudsmand, Biblioteket", "street": "G. Torv 22", "postcode": "1457", "city": "København K", "type": "Forskningsbibliotek", "geo": {"lat": 55.7058806, "lng": 12.5759414}},
{"id": "852620", "name": "Socialstyrelsen, Biblioteket", "area": "Socialstyrelsen, Biblioteket", "street": "Edisonsvej 18, 1.", "postcode": "5000", "city": "Odense C", "type": "Forskningsbibliotek", "geo": {"lat": 55.4050403, "lng": 10.3914276}},
{"id": "860100", "name": "Folketingets Bibliotek, Arkiv og Oplysning", "area": "Folketingets Bibliotek, Arkiv og Oplysning", "street": "Christiansborg", "postcode": "1240", "city": "København K", "type": "Forskningsbibliotek", "geo": {"lat": 55.6771298, "lng": 12.5804729}},
{"id": "860570", "name": "Mercantec, H.C. Andersensvej", "area": "Mercantec. Biblioteket", "street": "H. C. Andersensvej 9", "postcode": "8800", "city": "Viborg", "type": "Forskningsbibliotek", "geo": {"lat": 56.465143, "lng": 9.413229}},
{"id": "860590", "name": "Erhvervsskolerne Års, Biblioteket", "area": "Erhvervsskolerne Års, Biblioteket", "street": "Østre Boulevard 10", "postcode": "9600", "city": "Aars", "type": "Forskningsbibliotek", "geo": {"lat": 56.8045255, "lng": 9.532244}},
{"id": "831380", "name": "Syddansk Erhvervsskole. Biblioteket Vejle", "area": "Syddansk Erhvervsskole. Biblioteket OTG", "street": "Boulevarden 36", "postcode": "7100", "city": "Vejle", "type": "Forskningsbibliotek", "geo": {"lat": 55.71179069999999, "lng": 9.5220021}},
{"id": "860830", "name": "Syddansk Erhvervsskole. Biblioteket OTG", "area": "Syddansk Erhvervsskole. Biblioteket OTG", "street": "Munkebjergvej 130", "postcode": "5230", "city": "Odense M", "type": "Forskningsbibliotek", "geo": {"lat": 55.3809154, "lng": 10.4086351}},
{"id": "860840", "name": "IBC Kolding, Biblioteket", "area": "IBC, Biblioteket", "street": "Tvedvej 7", "postcode": "6000", "city": "Kolding", "type": "Forskningsbibliotek", "geo": {"lat": 55.4837451, "lng": 9.4861183}},
{"id": "860841", "name": "IBC Fredericia, Biblioteket", "area": "IBC, Biblioteket", "street": "Mosegårdsvej 1", "postcode": "7000", "city": "Fredericia", "type": "Forskningsbibliotek", "geo": {"lat": 55.539086, "lng": 9.718862999999999}},
{"id": "860842", "name": "IBC Aabenraa, Biblioteket", "area": "IBC, Biblioteket", "street": "Dronning Margrethes Vej 6-12", "postcode": "6200", "city": "Aabenraa", "type": "Forskningsbibliotek", "geo": {"lat": 55.04342, "lng": 9.41263}},
{"id": "862010", "name": "Erhvervsakademi Aarhus, biblioteket Tretommervej", "area": "Erhvervsakademi Aarhus, biblioteket", "street": "Tretommervej 31", "postcode": "8240", "city": "Risskov", "type": "Forskningsbibliotek", "geo": {"lat": 56.189038, "lng": 10.2220099}},
{"id": "861170", "name": "Rybners, Biblioteket", "area": "Rybners, Biblioteket", "street": "Grådybparken 11", "postcode": "6700", "city": "Esbjerg", "type": "Forskningsbibliotek", "geo": {"lat": 55.4802429, "lng": 8.4336222}},
{"id": "861210", "name": "Skive Tekniske Skole, Biblioteket", "area": "Skive Tekniske Skole, Biblioteket", "street": "Kongsvingervej 1", "postcode": "7800", "city": "Skive", "type": "Forskningsbibliotek", "geo": {"lat": 56.5551723, "lng": 9.017382}},
{"id": "861330", "name": "Jordbrugets UddannelsesCenter Århus/Beder. Biblioteket", "area": "Jordbrugets UddannelsesCenter Aarhus/Beder. Biblioteket", "street": "Damgårds Allé 5", "postcode": "8330", "city": "Beder", "type": "Forskningsbibliotek", "geo": {"lat": 56.05863799999999, "lng": 10.200265}},
{"id": "861430", "name": "Roskilde Handelsskole, Biblioteket", "area": "Roskilde Handelsskole, Biblioteket", "street": "Bakkesvinget 67", "postcode": "4000", "city": "Roskilde", "type": "Forskningsbibliotek", "geo": {"lat": 55.62647699999999, "lng": 12.0755079}},
{"id": "861440", "name": "Business College Syd, Biblioteket", "area": "Business College Syd, Biblioteket. Sønderborg Handelsskole-Mommark Handelskostskole", "street": "Sdr. Landevej 30", "postcode": "6400", "city": "Sønderborg", "type": "Forskningsbibliotek", "geo": {"lat": 54.90718, "lng": 9.808769999999999}},
{"id": "861450", "name": "EUC NORD, Biblioteket - Hestkærvej", "area": "EUC NORD, Biblioteket", "street": "Hestkærvej 30", "postcode": "9800", "city": "Hjørring", "type": "Forskningsbibliotek", "geo": {"lat": 57.46101, "lng": 10.012421}},
{"id": "861500", "name": "Handelsskolen Silkeborg Business College, Biblioteket", "area": "Handelsskolen Silkeborg Business College, Biblioteket", "street": "Bindslevs Plads 1", "postcode": "8600", "city": "Silkeborg", "type": "Forskningsbibliotek", "geo": {"lat": 56.166549, "lng": 9.548317299999999}},
{"id": "861520", "name": "Ribe Handelsskoles Bibliotek", "area": "Handelsgymnasiet i Ribe", "street": "Skyttevej 29", "postcode": "6760", "city": "Ribe", "type": "Forskningsbibliotek", "geo": {"lat": 55.339217, "lng": 8.782207}},
{"id": "861540", "name": "Campus Bornholm, Biblioteket", "area": "Campus Bornholm, Biblioteket", "street": "Minervavej 1", "postcode": "3700", "city": "Rønne", "type": "Forskningsbibliotek", "geo": {"lat": 55.10677099999999, "lng": 14.712703}},
{"id": "861620", "name": "Mediateket Herningsholm Erhvervsskole & VIA UC Ikast, Bøgildvej", "area": "Mediateket for Herningsholm Erhvervsskole & VIA University College Pædagoguddannelsen Ikast", "street": "Bøgildvej 12", "postcode": "7430", "city": "Ikast", "type": "Forskningsbibliotek", "geo": {"lat": 56.132901, "lng": 9.125879}},
{"id": "861621", "name": "Mediateket Herningsholm Erhvervsskole & VIA UC Ikast, Lillelundvej", "area": "Mediateket for Herningsholm Erhvervsskole & VIA University College Pædagoguddannelsen Ikast", "street": "Lillelundvej 21", "postcode": "7400", "city": "Herning", "type": "Forskningsbibliotek", "geo": {"lat": 56.1495304, "lng": 8.9869123}},
{"id": "861680", "name": "Uddannelsescenter Holstebro, Biblioteket", "area": "Uddannelsescenter Holstebro, Biblioteket", "street": "Døesvej 76", "postcode": "7500", "city": "Holstebro", "type": "Forskningsbibliotek", "geo": {"lat": 56.371804, "lng": 8.601745}},
{"id": "861730", "name": "UddannelsesCenter Ringkøbing Skjern.Biblioteket", "area": "UddannelsesCenter Ringkøbing Skjern. Biblioteket", "street": "undefined", "postcode": "undefined", "city": "undefined", "type": "Forskningsbibliotek"},
{"id": "861800", "name": "SOSU Aarhus", "area": "Aarhus Social- og Sundhedsskole, Sosubibliotek", "street": "Hedeager 33", "postcode": "8200", "city": "Århus N", "type": "Forskningsbibliotek", "geo": {"lat": 56.1943719, "lng": 10.1785138}},
{"id": "862070", "name": "Kold college, Biblioteket", "area": "Kold college, Biblioteket", "street": "Landbrugsvej 55", "postcode": "5260", "city": "Odense S", "type": "Forskningsbibliotek", "geo": {"lat": 55.3669024, "lng": 10.3983948}},
{"id": "862170", "name": "Handi-Info", "area": "Handi-Info", "street": "Grøndalsvej 1", "postcode": "8260", "city": "Viby J.", "type": "Forskningsbibliotek", "geo": {"lat": 56.122749, "lng": 10.14937}},
{"id": "870110", "name": "Skive Handelsskole, Biblioteket", "area": "Skive Handelsskole, Biblioteket", "street": "Arvikavej 2", "postcode": "7800", "city": "Skive", "type": "Forskningsbibliotek", "geo": {"lat": 56.554601, "lng": 9.022478999999999}},
{"id": "871890", "name": "Sct. Knuds Gymnasium, Biblioteket", "area": "Sct. Knuds Gymnasium, Biblioteket", "street": "Læssøegade 154", "postcode": "5230", "city": "Odense M", "type": "Forskningsbibliotek", "geo": {"lat": 55.377876, "lng": 10.38381}},
{"id": "872030", "name": "Mariagerfjord Gymnasium, Biblioteket", "area": "Mariagerfjord Gymnasium, Biblioteket", "street": "Amerikavej 5", "postcode": "9500", "city": "Hobro", "type": "Forskningsbibliotek", "geo": {"lat": 56.63380799999999, "lng": 9.813393999999999}},
{"id": "872050", "name": "Støvring Gymnasium, Biblioteket", "area": "Støvring Gymnasium, Biblioteket", "street": "Mastrupvej 77", "postcode": "9530", "city": "Støvring", "type": "Forskningsbibliotek", "geo": {"lat": 56.88053, "lng": 9.82992}},
{"id": "872080", "name": "Hasseris Gymnasium, Biblioteket", "area": "Hasseris Gymnasium, Biblioteket", "street": "Hasserisvej 300 Postboks 70", "postcode": "9100", "city": "Aalborg", "type": "Forskningsbibliotek", "geo": {"lat": 57.0488195, "lng": 9.921747}},
{"id": "872090", "name": "Brønderslev Gymnasium og HF-Kursus, Biblioteket", "area": "Brønderslev Gymnasium og HF-Kursus, Biblioteket", "street": "Islands Alle 20", "postcode": "9700", "city": "Brønderslev", "type": "Forskningsbibliotek", "geo": {"lat": 57.27855, "lng": 9.943748}},
{"id": "872100", "name": "Vesthimmerlands Gymnasium & HF, Biblioteket", "area": "Vesthimmerlands Gymnasium & HF, Biblioteket", "street": "Jyllandsgade 52", "postcode": "9600", "city": "Aars", "type": "Forskningsbibliotek", "geo": {"lat": 56.80115, "lng": 9.522762}},
{"id": "872140", "name": "Aalborghus Gymnasium, Biblioteket", "area": "Aalborghus Gymnasium, Biblioteket", "street": "Sohngaardsholmsvej 60", "postcode": "9000", "city": "Aalborg", "type": "Forskningsbibliotek", "geo": {"lat": 57.02580099999999, "lng": 9.942753999999999}},
{"id": "872200", "name": "Høje Taastrup Amtsgymnasium, Biblioteket", "area": "Høje Taastrup Gymnasium, Biblioteket", "street": "Frøgård Allé 2", "postcode": "2630", "city": "Taastrup", "type": "Forskningsbibliotek", "geo": {"lat": 55.64906500000001, "lng": 12.2624549}},
{"id": "872290", "name": "Aalborg Studenterkursus, Biblioteket", "area": "Aalborg Studenterkursus, Biblioteket", "street": "Danmarksgade 11", "postcode": "9000", "city": "Aalborg", "type": "Forskningsbibliotek", "geo": {"lat": 57.0458282, "lng": 9.9172802}},
{"id": "872340", "name": "Frederikshavn Gymnasium og HF-kursus, Gymnasiebiblioteket", "area": "Frederikshavn Gymnasium og HF-kursus, Gymnasiebiblioteket", "street": "Kærvej 1", "postcode": "9900", "city": "Frederikshavn", "type": "Forskningsbibliotek", "geo": {"lat": 57.44074999999999, "lng": 10.526423}},
{"id": "872350", "name": "Nørre Gymnasium, Studiecenter", "area": "Nørre Gymnasium, Studiecenter", "street": "Mørkhøjvej 78", "postcode": "2700", "city": "Brønshøj", "type": "Forskningsbibliotek", "geo": {"lat": 55.71838, "lng": 12.471291}},
{"id": "872400", "name": "Fjerritslev Gymnasium, Biblioteket", "area": "Fjerritslev Gymnasium, Biblioteket", "street": "Skovbrynet 9", "postcode": "9690", "city": "Fjerritslev", "type": "Forskningsbibliotek", "geo": {"lat": 57.09510599999999, "lng": 9.269088}},
{"id": "872520", "name": "Aalborg Katedralskole, Biblioteket", "area": "Aalborg Katedralskole, Biblioteket", "street": "Sct. Jørgens Gade 5", "postcode": "9000", "city": "Aalborg", "type": "Forskningsbibliotek", "geo": {"lat": 57.04810699999999, "lng": 9.911275000000002}},
{"id": "872600", "name": "Roskilde Gymnasium, Biblioteket", "area": "Roskilde Gymnasium, Biblioteket", "street": "Domkirkepladsen", "postcode": "4000", "city": "Roskilde", "type": "Forskningsbibliotek", "geo": {"lat": 55.6422884, "lng": 12.0798286}},
{"id": "874100", "name": "Dronninglund Gymnasium, Biblioteket", "area": "Dronninglund Gymnasium, Biblioteket", "street": "Søndervangsvej", "postcode": "9330", "city": "Dronninglund", "type": "Forskningsbibliotek", "geo": {"lat": 57.1520176, "lng": 10.2805041}},
{"id": "874260", "name": "Greve Gymnasium, Biblioteket", "area": "Greve Gymnasium, Biblioteket", "street": "Rådhusholmen 12", "postcode": "2670", "city": "Greve Strand", "type": "Forskningsbibliotek", "geo": {"lat": 55.58299599999999, "lng": 12.290174}},
{"id": "874310", "name": "Nota - Nationalbibliotek for mennesker med læsevanskeligheder", "area": "Nota - Nationalbibliotek for mennesker med læsevanskeligheder", "street": "Teglværksgade 37", "postcode": "2100", "city": "København Ø", "type": "Forskningsbibliotek", "geo": {"lat": 55.7082413, "lng": 12.558502}},
{"id": "874340", "name": "Thisted Gymnasium og HF-Kursus, Biblioteket", "area": "Thisted Gymnasium og HF-Kursus, Biblioteket", "street": "Ringvej 32", "postcode": "7700", "city": "Thisted", "type": "Forskningsbibliotek", "geo": {"lat": 56.96612, "lng": 8.69878}},
{"id": "874480", "name": "Næstved Gymnasium og HF. Biblioteket", "area": "Næstved Gymnasium og HF. Biblioteket", "street": "Nygårdsvej 43", "postcode": "4700", "city": "Næstved", "type": "Forskningsbibliotek", "geo": {"lat": 55.218796, "lng": 11.768075}},
{"id": "874600", "name": "SIMAC, Open Learning Center", "area": "SIMAC, Open Learning Center", "street": "Graaesvej 27", "postcode": "5700", "city": "Svendborg", "type": "Forskningsbibliotek", "geo": {"lat": 55.06521859999999, "lng": 10.6192228}},
{"id": "874830", "name": "Deutsche Büchereizentrale und Zentralbücherei Apenrade. Centralbiblioteket", "area": "Deutsche Büchereizentrale und Zentralbücherei Apenrade", "street": "Vestergade 30", "postcode": "6200", "city": "Aabenraa", "type": "Forskningsbibliotek", "geo": {"lat": 55.0427025, "lng": 9.4137007}},
{"id": "874840", "name": "Roskilde Tekniske Gymnasium. Biblioteket", "area": "Roskilde Tekniske Gymnasium. Biblioteket", "street": "Pulsen 4 Postbox 132", "postcode": "4000", "city": "Roskilde", "type": "Forskningsbibliotek", "geo": {"lat": 55.64191, "lng": 12.087845}},
{"id": "875140", "name": "Stenhus Gymnasium & HF. Bibliotek", "area": "Stenhus Gymnasium & HF. Bibliotek", "street": "Stenhusvej 20", "postcode": "4300", "city": "Holbæk", "type": "Forskningsbibliotek", "geo": {"lat": 55.7112214, "lng": 11.6827544}},
{"id": "875440", "name": "Erhvervsakademiet Lillebælt Biblioteket", "area": "Erhvervsakademiet Lillebælt Biblioteket", "street": "Nonnebakken 9", "postcode": "5000", "city": "Odense C", "type": "Forskningsbibliotek", "geo": {"lat": 55.39210199999999, "lng": 10.390117}},
{"id": "875470", "name": "Erhvervsakademi Kolding. Biblioteket", "area": "Erhvervsakademi Kolding. Biblioteket", "street": "Skamlingvejen 32", "postcode": "6000", "city": "Kolding", "type": "Forskningsbibliotek", "geo": {"lat": 55.4850486, "lng": 9.4867587}}]
